[{"station": "OKQ8", "city": "Uddevalla,", "short_address": "Trumpetv\u00e4gen", "formatted_address": "Trumpetv\u00e4gen 1, 451 62 Uddevalla, Sweden", "position": {"lat": 58.36584970000001, "lng": 11.9302295}, "place_id": "ChIJ4QO-NFYFRUYR9kyybMywZjk", "oktan": "Ja", "source": "https://www.okq8.se/pa-stationen/bensinstationer/uddevalla-trumpetvagen/", "distance": 0}, {"station": "OKQ8", "city": "Uddevalla,", "short_address": "Str\u00f6mstadsv\u00e4gen", "formatted_address": "Str\u00f6mstadsv\u00e4gen 50, 451 50 Uddevalla, Sweden", "position": {"lat": 58.353412, "lng": 11.9165712}, "place_id": "ChIJHSFIxO8PRUYRvj68nwBQf1M", "oktan": "Ja", "source": "https://www.okq8.se/pa-stationen/bensinstationer/uddevalla-stromstadsvagen/", "distance": 0}, {"station": "OKQ8", "city": "Trollh\u00e4ttan,", "short_address": "Tunhemsv\u00e4gen", "formatted_address": "Tunhemsv\u00e4gen 4, 461 39 Trollh\u00e4ttan, Sweden", "position": {"lat": 58.28937000000001, "lng": 12.2991328}, "place_id": "ChIJtXfB_PM8RUYR57ZBxS9liVk", "oktan": "Ja", "source": "https://www.okq8.se/pa-stationen/bensinstationer/trollhattan-tunhemsv-4-tanka/", "distance": 0}, {"station": "OKQ8", "city": "V\u00e4nersborg,", "short_address": "Edsv\u00e4gen", "formatted_address": "Edsv\u00e4gen 26, 462 35 V\u00e4nersborg, Sweden", "position": {"lat": 58.3703829, "lng": 12.3229888}, "place_id": "EihFZHN2w6RnZW4gMjYsIDQ2MiAzNSBWw6RuZXJzYm9yZywgU3dlZGVuIhoSGAoUChIJ00-r5AYjRUYRveUcKnscvmEQGg", "oktan": "Ja", "source": "https://www.okq8.se/pa-stationen/bensinstationer/vanersborg-edsvagen/", "distance": 0}, {"station": "OKQ8", "city": "Trollh\u00e4ttan,", "short_address": "Kardanv\u00e4gen", "formatted_address": "Kardanv\u00e4gen 14, e45, 461 38 Trollh\u00e4ttan, Sweden", "position": {"lat": 58.2944196, "lng": 12.3208119}, "place_id": "EjFLYXJkYW52w6RnZW4gMTQsIGU0NSwgNDYxIDM4IFRyb2xsaMOkdHRhbiwgU3dlZGVuIh8aHQoWChQKEgnBcgCRkTxFRhH8fZ0bTW6lYRIDZTQ1", "oktan": "Ja", "source": "https://www.okq8.se/pa-stationen/bensinstationer/trollhattan-e45-/-kardanv/", "distance": 0}, {"station": "OKQ8", "city": "Trollh\u00e4ttan,", "short_address": "Lantmannav\u00e4gen", "formatted_address": "Lantmannav\u00e4gen 6, 461 60 Trollh\u00e4ttan, Sweden", "position": {"lat": 58.27345889999999, "lng": 12.3111413}, "place_id": "ChIJL8woNGQ8RUYR4YpgImb5Q1M", "oktan": "Ja", "source": "https://www.okq8.se/pa-stationen/bensinstationer/trollhattan-lantmannavagen/", "distance": 0}, {"station": "OKQ8", "city": "Munkedal,", "short_address": "Tradenv\u00e4gen", "formatted_address": "Tradenv\u00e4gen 6, 455 91 Munkedal, Sweden", "position": {"lat": 58.48784879999999, "lng": 11.6307298}, "place_id": "ChIJn2J4tNWrRUYR61MqXziOnhM", "oktan": "Ja", "source": "https://www.okq8.se/pa-stationen/bensinstationer/munkedal-habygard/", "distance": 0}, {"station": "OKQ8", "city": "Lilla Edet,", "short_address": "Skansenv\u00e4gen", "formatted_address": "Skansenv\u00e4gen 34, 463 30 Lilla Edet, Sweden", "position": {"lat": 58.1480992, "lng": 12.1342427}, "place_id": "ChIJlQC8Lh1ARUYRcO_t4MIyfeM", "oktan": "Ja", "source": "https://www.okq8.se/pa-stationen/bensinstationer/lilla-edet-skansenvagen/", "distance": 0}, {"station": "OKQ8", "city": "Lysekil,", "short_address": "F\u00f6rr\u00e5dsv\u00e4gen", "formatted_address": "F\u00f6rr\u00e5dsv\u00e4gen 1, 453 38 Lysekil, Sweden", "position": {"lat": 58.2859338, "lng": 11.4621173}, "place_id": "ChIJRf-Y-tujRUYRdwCVEz_cfkY", "oktan": "Ja", "source": "https://www.okq8.se/pa-stationen/bensinstationer/lysekil-forradsvagen-tanka/", "distance": 0}, {"station": "OKQ8", "city": "Br\u00e5landa,", "short_address": "Storgatan", "formatted_address": "Storgatan 62, 464 61 Br\u00e5landa, Sweden", "position": {"lat": 58.55905629999999, "lng": 12.3582792}, "place_id": "ChIJNQ9iejTeREYRFcFSFdETHTE", "oktan": "Ja", "source": "https://www.okq8.se/pa-stationen/bensinstationer/bralanda-storgatan/", "distance": 0}, {"station": "OKQ8", "city": "Sk\u00e4rhamn,", "short_address": "Enebacken", "formatted_address": "Enebacken 2, 471 33 Sk\u00e4rhamn, Sweden", "position": {"lat": 57.9860528, "lng": 11.5562352}, "place_id": "ChIJc66yVqp5RUYRq4LYkOgBbJE", "oktan": "Ja", "source": "https://www.okq8.se/pa-stationen/bensinstationer/skarhamn-enebacken/", "distance": 0}, {"station": "OKQ8", "city": "Mellerud,", "short_address": "Landsv\u00e4gsgatan", "formatted_address": "Landsv\u00e4gsgatan 44, 464 31 Mellerud, Sweden", "position": {"lat": 58.6990019, "lng": 12.4484626}, "place_id": "ChIJka2gl8XCREYRWNE8BGTMSf8", "oktan": "Ja", "source": "https://www.okq8.se/pa-stationen/bensinstationer/mellerud-landsvagsg-tanka/", "distance": 0}, {"station": "OKQ8", "city": "N\u00f6dinge,", "short_address": "Ale Torg", "formatted_address": "Ale Torg 20, 449 31 N\u00f6dinge, Sweden", "position": {"lat": 57.89292289999999, "lng": 12.0449209}, "place_id": "EiRBbGUgVG9yZyAyMCwgNDQ5IDMxIE7DtmRpbmdlLCBTd2VkZW4iGhIYChQKEgnVNgbh311FRhHAgRyc8Ieg-xAU", "oktan": "Ja", "source": "https://www.okq8.se/pa-stationen/bensinstationer/nodinge-nodingevagen/", "distance": 0}, {"station": "OKQ8", "city": "Kung\u00e4lv,", "short_address": "Teknikergatan", "formatted_address": "Teknikergatan 2, 442 34 Kung\u00e4lv, Sweden", "position": {"lat": 57.88063380000001, "lng": 11.9811537}, "place_id": "ChIJB7yCfrtgRUYRXAVFyI_6n4I", "oktan": "Ja", "source": "https://www.okq8.se/pa-stationen/bensinstationer/kungalv/", "distance": 0}, {"station": "OKQ8", "city": "Tanumshede,", "short_address": "Industriv\u00e4gen", "formatted_address": "Industriv\u00e4gen 2, 457 31 Tanumshede, Sweden", "position": {"lat": 58.7210483, "lng": 11.327942}, "place_id": "ChIJXQ4yzRJJREYRLlNDlbrRDJY", "oktan": "Ja", "source": "https://www.okq8.se/pa-stationen/bensinstationer/tanumshede-industriv-tanka/", "distance": 0}, {"station": "OKQ8", "city": "V\u00e5rg\u00e5rda,", "short_address": "Stockholmsv\u00e4gen", "formatted_address": "Stockholmsv\u00e4gen 44, 447 91 V\u00e5rg\u00e5rda, Sweden", "position": {"lat": 58.05045510000001, "lng": 12.8153016}, "place_id": "ChIJ7Uk86H62WkYR4KmiW-jAG1w", "oktan": "Ja", "source": "https://www.okq8.se/pa-stationen/bensinstationer/vargarda/", "distance": 0}, {"station": "OKQ8", "city": "Angered,", "short_address": "Korpv\u00e4gen", "formatted_address": "Korpv\u00e4gen, 424 69 G\u00f6teborg, Sweden", "position": {"lat": 57.78911040000001, "lng": 12.0426248}, "place_id": "ChIJzxygwIT1T0YRo_D-9zftuCo", "oktan": "Ja", "source": "https://www.okq8.se/pa-stationen/bensinstationer/angered-goteborg/", "distance": 0}, {"station": "OKQ8", "city": "Hisings Backa,", "short_address": "Transportgatan", "formatted_address": "Transportgatan 6, 422 46 Hisings Backa, Sweden", "position": {"lat": 57.7714229, "lng": 11.9977683}, "place_id": "ChIJz96J3hD1T0YRJ4s_Bg4hgvo", "oktan": "Ja", "source": "https://www.okq8.se/pa-stationen/bensinstationer/backebol/", "distance": 0}, {"station": "OKQ8", "city": "Stenkullen,", "short_address": "Hede G\u00e4rde", "formatted_address": "Hede g\u00e4rde 2, 443 60 Stenkullen, Sweden", "position": {"lat": 57.78335430000001, "lng": 12.29613}, "place_id": "ChIJm1YrY9pXRUYRrEL5flhxx5Y", "oktan": "Ja", "source": "https://www.okq8.se/pa-stationen/bensinstationer/lerum-stenkullen/", "distance": 0}, {"station": "OKQ8", "city": "G\u00f6teborg,", "short_address": "Stenebyv\u00e4gen", "formatted_address": "Stenebyv\u00e4gen, G\u00f6teborg, Sweden", "position": {"lat": 57.75320979999999, "lng": 11.8936271}, "place_id": "EiZTdGVuZWJ5dsOkZ2VuLCBUdXZlLCBHw7Z0ZWJvcmcsIFN3ZWRlbiIuKiwKFAoSCRW6eCgQi09GEW44hvjzlV0HEhQKEgmn9Hr0K4tPRhGrvsbS1bQOdg", "oktan": "Ja", "source": "https://www.okq8.se/pa-stationen/bensinstationer/tuve-stenebyvagen-tanka/", "distance": 0}, {"station": "OKQ8", "city": "G\u00f6teborg,", "short_address": "Bergsj\u00f6v\u00e4gen", "formatted_address": "Bergsj\u00f6v\u00e4gen, G\u00f6teborg, Sweden", "position": {"lat": 57.76403639999999, "lng": 12.07242}, "place_id": "ChIJqWOdnMj1T0YRzy4l6RlqMMo", "oktan": "Ja", "source": "https://www.okq8.se/pa-stationen/bensinstationer/goteborg-bergsjovagen/", "distance": 0}, {"station": "OKQ8", "city": "Partille,", "short_address": "Gamla Kronv\u00e4gen", "formatted_address": "Gamla Kronv\u00e4gen 94, 433 38 Partille, Sweden", "position": {"lat": 57.74154710000001, "lng": 12.1238765}, "place_id": "ChIJ5yvOPPT2T0YRrYUyCeCJ1FQ", "oktan": "Ja", "source": "https://www.okq8.se/pa-stationen/bensinstationer/partille-ga-kronvagen/", "distance": 0}, {"station": "OKQ8", "city": "Hisings Backa,", "short_address": "Litteraturgatan", "formatted_address": "Litteraturgatan 1, 422 44 Hisings Backa, Sweden", "position": {"lat": 57.72735119999999, "lng": 11.9720822}, "place_id": "ChIJxV2kDZf0T0YRNYLa_pRfW_k", "oktan": "Ja", "source": "https://www.okq8.se/pa-stationen/bensinstationer/hisings-backa-brunnsbo-tanka/", "distance": 0}, {"station": "OKQ8", "city": "G\u00f6teborg,", "short_address": "Inlandsgatan", "formatted_address": "Inlandsgatan 52, 417 15 G\u00f6teborg, Sweden", "position": {"lat": 57.7197997, "lng": 11.9334802}, "place_id": "ChIJzX5GRKr0T0YRGD9LJ0zycmg", "oktan": "Ja", "source": "https://www.okq8.se/pa-stationen/bensinstationer/goteborg-inlandsgatan/", "distance": 0}, {"station": "OKQ8", "city": "G\u00f6teborg,", "short_address": "Gropeg\u00e5rdsgatan", "formatted_address": "Gropeg\u00e5rdsgatan 2, 417 15 G\u00f6teborg, Sweden", "position": {"lat": 57.7143866, "lng": 11.924492}, "place_id": "ChIJSUOdJquMT0YR9iXgD9A2qmM", "oktan": "Ja", "source": "https://www.okq8.se/pa-stationen/bensinstationer/goteborg-gropegardsg-tanka/", "distance": 0}, {"station": "OKQ8", "city": "Lidk\u00f6ping,", "short_address": "Mellbygatan", "formatted_address": "Mellbygatan 48, 531 51 Lidk\u00f6ping, Sweden", "position": {"lat": 58.4965138, "lng": 13.1491877}, "place_id": "ChIJl9bfKesoW0YR4SVmKIw0pNw", "oktan": "Ja", "source": "https://www.okq8.se/pa-stationen/bensinstationer/lidkoping/", "distance": 0}, {"station": "OKQ8", "city": "G\u00f6teborg,", "short_address": "Sommarv\u00e4dersgatan", "formatted_address": "Sommarv\u00e4dersgatan 1, 418 33 G\u00f6teborg, Sweden", "position": {"lat": 57.7137744, "lng": 11.8971607}, "place_id": "ChIJyal8jqOMT0YRHAXgU_aX-ww", "oktan": "Ja", "source": "https://www.okq8.se/pa-stationen/bensinstationer/goteborg-sommarvadersg/", "distance": 0}, {"station": "OKQ8", "city": "G\u00f6teborg,", "formatted_address": "Herkulesgatan & Inlandsgatan, 417 15 G\u00f6teborg, Sweden", "position": {"lat": 57.712644, "lng": 11.9308095}, "place_id": "EjZIZXJrdWxlc2dhdGFuICYgSW5sYW5kc2dhdGFuLCA0MTcgMTUgR8O2dGVib3JnLCBTd2VkZW4iZiJkChQKEglbIrl0VPNPRhH0rUqDqoq0dhIUChIJWyK5dFTzT0YR9K1Kg6qKtHYaFAoSCfHP8chX809GESNXcsb6R_MaGhQKEgltiXSlVfNPRhEfomeqDckPnCIKDShAZiIVP38cBw", "oktan": "Ja", "source": "https://www.okq8.se/pa-stationen/bensinstationer/goteborg-lundbyleden-tanka/", "distance": 0}, {"station": "OKQ8", "city": "G\u00f6teborg,", "short_address": "S\u00f6rredsv\u00e4gen", "formatted_address": "S\u00f6rredsv\u00e4gen, G\u00f6teborg, Sweden", "position": {"lat": 57.73887370000001, "lng": 11.8578998}, "place_id": "ChIJY9qJHYSLT0YRtLDOW_Ig-ZA", "oktan": "Ja", "source": "https://www.okq8.se/pa-stationen/bensinstationer/goteborg-torslanda-tanka/", "distance": 0}, {"station": "OKQ8", "city": "Lidk\u00f6ping,", "short_address": "Mellbygatan", "formatted_address": "Mellbygatan 48, 531 52 Lidk\u00f6ping, Sweden", "position": {"lat": 58.4964031, "lng": 13.1486884}, "place_id": "ChIJhzcb1-ooW0YR3F854JuQHuo", "oktan": "Ja", "source": "https://www.okq8.se/pa-stationen/bensinstationer/lidkoping-mellbyg-tanka/", "distance": 0}, {"station": "OKQ8", "city": "G\u00f6teborg,", "short_address": "Terminalv\u00e4gen", "formatted_address": "Terminalv\u00e4gen 3, 418 79 G\u00f6teborg, Sweden", "position": {"lat": 57.6974791, "lng": 11.8106579}, "place_id": "ChIJ9eY4h0eMT0YRam4ar3eHcDo", "oktan": "Ja", "source": "https://www.okq8.se/pa-stationen/bensinstationer/goteborg-arendal-tanka/", "distance": 0}, {"station": "OKQ8", "city": "V\u00e4stra Fr\u00f6lunda,", "short_address": "B\u00e4rnstensgatan", "formatted_address": "B\u00e4rnstensgatan 3, 426 52 Guldringen, Sweden", "position": {"lat": 57.6591347, "lng": 11.8887999}, "place_id": "ChIJHRaeTjGNT0YRaltAv3did5k", "oktan": "Ja", "source": "https://www.okq8.se/pa-stationen/bensinstationer/vastra-frolunda-barnstensg/", "distance": 0}, {"station": "OKQ8", "city": "Landvetter,", "short_address": "Flygplatsv\u00e4gen", "formatted_address": "Flygplatsv\u00e4gen 10, 438 70 Landvetter, Sweden", "position": {"lat": 57.6796963, "lng": 12.3111636}, "place_id": "ChIJbfkSPeL7T0YRW_oFiI2EYCk", "oktan": "Ja", "source": "https://www.okq8.se/pa-stationen/bensinstationer/landvetter-flygplatsvagen-10/", "distance": 0}, {"station": "OKQ8", "city": "V\u00e4stra Fr\u00f6lunda,", "short_address": "Skatteg\u00e5rdsv\u00e4gen", "formatted_address": "Skatteg\u00e5rdsv\u00e4gen 2, 421 50 V\u00e4stra Fr\u00f6lunda, Sweden", "position": {"lat": 57.6511916, "lng": 11.9030937}, "place_id": "ChIJB8Re8LXyT0YRRzrSllZISgQ", "oktan": "Ja", "source": "https://www.okq8.se/pa-stationen/bensinstationer/vastra-frolunda-skattegardsv/", "distance": 0}, {"station": "OKQ8", "city": "V\u00e4stra Fr\u00f6lunda,", "short_address": "Norra L\u00e5ngebergsgatan", "formatted_address": "Norra L\u00e5ngebergsgatan 3, 421 32 V\u00e4stra Fr\u00f6lunda, Sweden", "position": {"lat": 57.6477806, "lng": 11.9533838}, "place_id": "ChIJX_uTOfPyT0YR03YBZ8HM6IE", "oktan": "Ja", "source": "https://www.okq8.se/pa-stationen/bensinstationer/v-frolunda-langebergsg-tanka/", "distance": 0}, {"station": "OKQ8", "city": "Str\u00f6mstad,", "short_address": "Solviksgatan", "formatted_address": "Solviksgatan 2, 452 33 Str\u00f6mstad, Sweden", "position": {"lat": 58.9304666, "lng": 11.1866132}, "place_id": "ChIJDwPt0Zw-REYREEYLOyqfOVI", "oktan": "Ja", "source": "https://www.okq8.se/pa-stationen/bensinstationer/stromstad-solviksgatan/", "distance": 0}, {"station": "OKQ8", "city": "K\u00e5llered,", "short_address": "Ekenleden", "formatted_address": "Ekenleden 1, 428 36 K\u00e5llered, Sweden", "position": {"lat": 57.6017661, "lng": 12.0519527}, "place_id": "ChIJoSJnQT3uT0YRkH-lncDh5eE", "oktan": "Ja", "source": "https://www.okq8.se/pa-stationen/bensinstationer/kallered-ekenleden/", "distance": 0}, {"station": "OKQ8", "city": "Fristad,", "short_address": "Stora V\u00e4gen", "formatted_address": "Stora V\u00e4gen 24, 513 34 Fristad, Sweden", "position": {"lat": 57.8240728, "lng": 13.0084919}, "place_id": "ChIJkwbdfZGjWkYRzB0qLUiopmk", "oktan": "Ja", "source": "https://www.okq8.se/pa-stationen/bensinstationer/fristad/", "distance": 0}, {"station": "OKQ8", "city": "Billdal,", "short_address": "Kungsporten", "formatted_address": "Kungsporten 7, 427 50 Billdal, Sweden", "position": {"lat": 57.5624018, "lng": 11.9606452}, "place_id": "ChIJ3y-ngzjsT0YRoAyEj9YP0k8", "oktan": "Ja", "source": "https://www.okq8.se/pa-stationen/bensinstationer/billdal/", "distance": 0}, {"station": "OKQ8", "city": "Bor\u00e5s,", "short_address": "Alidelundsgatan", "formatted_address": "Alidelundsgatan 1, 506 31 Bor\u00e5s, Sweden", "position": {"lat": 57.73865199999999, "lng": 12.9391457}, "place_id": "EihBbGlkZWx1bmRzZ2F0YW4gMSwgNTA2IDMxIEJvcsOlcywgU3dlZGVuIhoSGAoUChIJ2zN0nDSnWkYRkVWYFLQqDsIQAQ", "oktan": "Ja", "source": "https://www.okq8.se/pa-stationen/bensinstationer/boras-alidelundsg/", "distance": 0}, {"station": "OKQ8", "city": "Str\u00f6mstad,", "formatted_address": "Str\u00f6mstad, Sweden", "position": {"lat": 58.9383459, "lng": 11.1791872}, "place_id": "ChIJXX15lSkjREYRkHwOKXiQAQQ", "oktan": "Ja", "source": "https://www.okq8.se/pa-stationen/bensinstationer/stromstad/", "distance": 0}, {"station": "OKQ8", "city": "Bor\u00e5s,", "short_address": "Hultagatan", "formatted_address": "Hultagatan 9, 507 50 Bor\u00e5s, Sweden", "position": {"lat": 57.72038200000001, "lng": 12.9737297}, "place_id": "ChIJz113BJegWkYRCeT6216p8b4", "oktan": "Ja", "source": "https://www.okq8.se/pa-stationen/bensinstationer/boras-hultagatan/", "distance": 0}, {"station": "OKQ8", "city": "Kungsbacka,", "short_address": "Energigatan", "formatted_address": "Energigatan 2, 434 37 Kungsbacka, Sweden", "position": {"lat": 57.5063105, "lng": 12.0643082}, "place_id": "ChIJd4LASMToT0YRYdllpfpDLSU", "oktan": "Ja", "source": "https://www.okq8.se/pa-stationen/bensinstationer/kungsbacka-energigatan/", "distance": 0}, {"station": "OKQ8", "city": "Falk\u00f6ping,", "short_address": "\u00d6ster\u00e4ngsgatan", "formatted_address": "\u00d6ster\u00e4ngsgatan 2, 521 34 Falk\u00f6ping, Sweden", "position": {"lat": 58.17054659999999, "lng": 13.5815351}, "place_id": "ChIJt2DfxcPvWkYRJaAcFXmRYII", "oktan": "Ja", "source": "https://www.okq8.se/pa-stationen/bensinstationer/falkoping-osterangsg/", "distance": 0}, {"station": "OKQ8", "city": "Falk\u00f6ping,", "short_address": "Lovenegatan", "formatted_address": "Lovenegatan 1, 521 41 Falk\u00f6ping, Sweden", "position": {"lat": 58.1694038, "lng": 13.5804665}, "place_id": "ChIJHw6X78PvWkYRYmDKFxrJH4I", "oktan": "Ja", "source": "https://www.okq8.se/pa-stationen/bensinstationer/falkoping-lovenegat-tanka/", "distance": 0}, {"station": "OKQ8", "city": "S\u00e4ffle,", "short_address": "J\u00e4rnv\u00e4gsgatan", "formatted_address": "J\u00e4rnv\u00e4gsgatan, 661 30 S\u00e4ffle, Sweden", "position": {"lat": 59.13301269999999, "lng": 12.9177436}, "place_id": "ChIJMVdTIJ6oREYR04hXn6cZmbs", "oktan": "Ja", "source": "https://www.okq8.se/pa-stationen/bensinstationer/saffle-jarnvagsgatan/", "distance": 0}, {"station": "OKQ8", "city": "Kinna,", "short_address": "Lyddev\u00e4gen", "formatted_address": "Lyddev\u00e4gen, Kinna, Sweden", "position": {"lat": 57.5036758, "lng": 12.7106873}, "place_id": "ChIJa5NatWEQUEYRxE15t87cA3U", "oktan": "Ja", "source": "https://www.okq8.se/pa-stationen/bensinstationer/kinna-lyddevagen/", "distance": 0}, {"station": "OKQ8", "city": "S\u00e4ffle,", "short_address": "Sommarrov\u00e4gen", "formatted_address": "Sommarrov\u00e4gen 2, 661 40 S\u00e4ffle, Sweden", "position": {"lat": 59.14207829999999, "lng": 12.9412375}, "place_id": "ChIJ1dxMkIWoREYRGXUfpRo5A8I", "oktan": "Ja", "source": "https://www.okq8.se/pa-stationen/bensinstationer/saffle-sommarrovagen/", "distance": 0}, {"station": "OKQ8", "city": "Ulricehamn,", "short_address": "Bor\u00e5sv\u00e4gen", "formatted_address": "Bor\u00e5sv\u00e4gen 9, 523 30 Ulricehamn, Sweden", "position": {"lat": 57.796492, "lng": 13.4135014}, "place_id": "ChIJD6HfutWEWkYRx5rEgK8RapI", "oktan": "Ja", "source": "https://www.okq8.se/pa-stationen/bensinstationer/ulricehamn-borasvagen/", "distance": 0}, {"station": "OKQ8", "city": "Bj\u00f6rketorp,", "short_address": "Varbergsv\u00e4gen", "formatted_address": "Varbergsv\u00e4gen 303, 519 94 Bj\u00f6rketorp, Sweden", "position": {"lat": 57.42948610000001, "lng": 12.5281324}, "place_id": "ChIJ1Rn9V98YUEYRwkyjSJBQ0Yc", "oktan": "Ja", "source": "https://www.okq8.se/pa-stationen/bensinstationer/bjorketorp-automat/", "distance": 0}, {"station": "OKQ8", "city": "Sk\u00f6vde,", "short_address": "Gamla Kungsv\u00e4gen", "formatted_address": "Gamla Kungsv\u00e4gen 49, 541 32 Sk\u00f6vde, Sweden", "position": {"lat": 58.3950893, "lng": 13.8371678}, "place_id": "ChIJw60rdEkCW0YRXNfR44slyYo", "oktan": "Ja", "source": "https://www.okq8.se/pa-stationen/bensinstationer/skovde-gamla-kungsvagen/", "distance": 0}, {"station": "OKQ8", "city": "Sk\u00f6vde,", "short_address": "Mellomkvarnsv\u00e4gen", "formatted_address": "Mellomkvarnsv\u00e4gen 2, 541 39 Sk\u00f6vde, Sweden", "position": {"lat": 58.4192206, "lng": 13.8706116}, "place_id": "ChIJWcpU-8IDW0YRPGDNgr-zSos", "oktan": "Ja", "source": "https://www.okq8.se/pa-stationen/bensinstationer/skovde-mellomkvarnsv-tanka/", "distance": 0}, {"station": "OKQ8", "city": "Mariestad,", "short_address": "Hammarsmedsgatan", "formatted_address": "Hammarsmedsgatan 27, 542 35 Mariestad, Sweden", "position": {"lat": 58.67806220000001, "lng": 13.8198887}, "place_id": "ChIJGxTsqlYSW0YR1ag3i7JcOjg", "oktan": "Ja", "source": "https://www.okq8.se/pa-stationen/bensinstationer/mariestad-hammarsmedsg-tanka/", "distance": 0}, {"station": "OKQ8", "city": "Mariestad,", "short_address": "Leverstadsv\u00e4gen", "formatted_address": "Leverstadsv\u00e4gen 6, 542 35 Mariestad, Sweden", "position": {"lat": 58.6976207, "lng": 13.8184202}, "place_id": "ChIJdbWGER0TW0YRyJWhB8_1gUk", "oktan": "Ja", "source": "https://www.okq8.se/pa-stationen/bensinstationer/mariestad-leverstadsvagen/", "distance": 0}, {"station": "OKQ8", "city": "Mariestad,", "short_address": "Suntorp Rattugglan", "formatted_address": "Suntorp Rattugglan 1, 542 92 Mariestad, Sweden", "position": {"lat": 58.69322090000001, "lng": 13.8592677}, "place_id": "ChIJtzL14ZISW0YRh6_08Wxl7q8", "oktan": "Ja", "source": "https://www.okq8.se/pa-stationen/bensinstationer/mariestad-muggebo/", "distance": 0}, {"station": "OKQ8", "city": "Ulricehamn,", "formatted_address": "523 91 Str\u00e4ngsered, Sweden", "position": {"lat": 57.766667, "lng": 13.666667}, "place_id": "ChIJJSwmYbNiWkYRAV0MR-RVT9k", "oktan": "Ja", "source": "https://www.okq8.se/pa-stationen/bensinstationer/ulricehamn-strangsered/", "distance": 0}, {"station": "OKQ8", "city": "Grums,", "formatted_address": "Grums, Sweden", "position": {"lat": 59.35317870000001, "lng": 13.111732}, "place_id": "ChIJtZfAbBhFQ0YRgH8OKXiQAQQ", "oktan": "Ja", "source": "https://www.okq8.se/pa-stationen/bensinstationer/grums-nyangsvagen/", "distance": 0}, {"station": "OKQ8", "city": "Varberg,", "short_address": "V\u00e4rnamov\u00e4gen", "formatted_address": "V\u00e4rnamov\u00e4gen 14, 432 32 Varberg, Sweden", "position": {"lat": 57.1227466, "lng": 12.2773984}, "place_id": "ChIJFTpSdi0qUEYR30nOWccrbqo", "oktan": "Ja", "source": "https://www.okq8.se/pa-stationen/bensinstationer/varberg-varnamov-14-tanka/", "distance": 0}, {"station": "OKQ8", "city": "Varberg,", "short_address": "Monarkv\u00e4gen", "formatted_address": "Monarkv\u00e4gen 12, 432 40 Varberg, Sweden", "position": {"lat": 57.116103, "lng": 12.2598045}, "place_id": "ChIJE-d0xDkqUEYRh_xdv98gvVI", "oktan": "Ja", "source": "https://www.okq8.se/pa-stationen/bensinstationer/varberg-monarkvagen/", "distance": 0}, {"station": "OKQ8", "city": "Skoghall,", "short_address": "Hovlandav\u00e4gen", "formatted_address": "Hovlandav\u00e4gen 5, 663 32 Skoghall, Sweden", "position": {"lat": 59.32418979999999, "lng": 13.4777691}, "place_id": "ChIJx6XLF_6tXEYR6uJZDRjDOJk", "oktan": "Ja", "source": "https://www.okq8.se/pa-stationen/bensinstationer/skoghall-hovlandavagen/", "distance": 0}, {"station": "OKQ8", "city": "Karlstad,", "short_address": "K\u00f6pv\u00e4gen", "formatted_address": "K\u00f6pv\u00e4gen 1, 653 46 Karlstad, Sweden", "position": {"lat": 59.3773028, "lng": 13.4301173}, "place_id": "ChIJC8G0nf-yXEYRydl4lTUT_do", "oktan": "Ja", "source": "https://www.okq8.se/pa-stationen/bensinstationer/karlstad-kopvagen/", "distance": 0}, {"station": "OKQ8", "city": "Karlstad,", "short_address": "Hagalundsv\u00e4gen", "formatted_address": "Hagalundsv\u00e4gen 27, 653 41 Karlstad, Sweden", "position": {"lat": 59.3838157, "lng": 13.4799349}, "place_id": "ChIJD52wHsmzXEYR5t1siTsgPBg", "oktan": "Ja", "source": "https://www.okq8.se/pa-stationen/bensinstationer/karlstad-hagalundsvagen-27/", "distance": 0}, {"station": "OKQ8", "city": "Karlstad,", "short_address": "Packhusgatan", "formatted_address": "Packhusgatan 1, 652 26 Karlstad, Sweden", "position": {"lat": 59.37436030000001, "lng": 13.5050114}, "place_id": "ChIJU2H2QtWzXEYR6qCXPc__QAA", "oktan": "Ja", "source": "https://www.okq8.se/pa-stationen/bensinstationer/karlstad-packhusgat-1-tanka/", "distance": 0}, {"station": "OKQ8", "city": "J\u00f6nk\u00f6ping,", "short_address": "Jordbrov\u00e4gen", "formatted_address": "Jordbrov\u00e4gen 10, 553 39 J\u00f6nk\u00f6ping, Sweden", "position": {"lat": 57.7645754, "lng": 14.1525119}, "place_id": "ChIJN-Z95_VtWkYRlUtMVWQtdB0", "oktan": "Ja", "source": "https://www.okq8.se/pa-stationen/bensinstationer/jonkoping-jordbrovagen/", "distance": 0}, {"station": "OKQ8", "city": "Tv\u00e5\u00e5ker,", "formatted_address": "432 77 Himle, Sweden", "position": {"lat": 57.072463, "lng": 12.3644855}, "place_id": "ChIJW9w7ffMsUEYRwHxAo3qQAQo", "oktan": "Ja", "source": "https://www.okq8.se/pa-stationen/bensinstationer/tvaaker-himle/", "distance": 0}, {"station": "OKQ8", "city": "Karlstad,", "short_address": "H\u00f6jdgatan", "formatted_address": "H\u00f6jdgatan 1, 654 68 Karlstad, Sweden", "position": {"lat": 59.401889, "lng": 13.5332161}, "place_id": "ChIJ_6tpy1uxXEYR3a_ScqTIehQ", "oktan": "Ja", "source": "https://www.okq8.se/pa-stationen/bensinstationer/karlstad-hojdgatan/", "distance": 0}, {"station": "OKQ8", "city": "Huskvarna,", "formatted_address": "Huskvarna V\u00e5rstarondellen, 561 33 Huskvarna, Sweden", "position": {"lat": 57.787681, "lng": 14.266495}, "place_id": "ChIJLTbqfy9tWkYRMjjgrOC6RbY", "oktan": "Ja", "source": "https://www.okq8.se/pa-stationen/bensinstationer/huskvarna-varstarondellen/", "distance": 0}, {"station": "OKQ8", "city": "Gislaved,", "short_address": "Gr\u00e4fthultsv\u00e4gen", "formatted_address": "Gr\u00e4fthultsv\u00e4gen 1, 332 33 Gislaved, Sweden", "position": {"lat": 57.29081009999999, "lng": 13.5220229}, "place_id": "ChIJ_bUgpjqLUEYRwyLyAUhHWSc", "oktan": "Ja", "source": "https://www.okq8.se/pa-stationen/bensinstationer/gislaved-sodergard/", "distance": 0}, {"station": "OKQ8", "city": "Kil,", "short_address": "\u00c5rstidsv\u00e4gen", "formatted_address": "\u00c5rstidsv\u00e4gen 2, 665 35 Kil, Sweden", "position": {"lat": 59.5034081, "lng": 13.332037}, "place_id": "ChIJN2YfZlxKQ0YRWrTFDtI2NiQ", "oktan": "Ja", "source": "https://www.okq8.se/pa-stationen/bensinstationer/kil-stenasen/", "distance": 0}, {"station": "OKQ8", "city": "Arvika,", "short_address": "Bl\u00e4sterv\u00e4gen", "formatted_address": "Bl\u00e4sterv\u00e4gen 2, 671 41 Arvika, Sweden", "position": {"lat": 59.66947889999999, "lng": 12.5931658}, "place_id": "ChIJQbRvvXYSQ0YRZzl3wxVu-Fo", "oktan": "Ja", "source": "https://www.okq8.se/pa-stationen/bensinstationer/arvika-blastervagen/", "distance": 0}, {"station": "OKQ8", "city": "\u00d6desh\u00f6g,", "short_address": "Liljekonvaljv\u00e4gen", "formatted_address": "Liljekonvaljv\u00e4gen 3, 599 31 \u00d6desh\u00f6g, Sweden", "position": {"lat": 58.22668650000001, "lng": 14.6692707}, "place_id": "ChIJVVVVlZI0WkYRJb9QzbKEJuA", "oktan": "Ja", "source": "https://www.okq8.se/pa-stationen/bensinstationer/odeshog-liljekonvaljvagen/", "distance": 0}, {"station": "OKQ8", "city": "Kristinehamn,", "short_address": "V\u00e4stg\u00f6tagatan", "formatted_address": "V\u00e4stg\u00f6tagatan 45, 681 42 Kristinehamn, Sweden", "position": {"lat": 59.29932909999999, "lng": 14.119984}, "place_id": "ChIJf7uFkt2QXEYR-MjF75wzdAo", "oktan": "Ja", "source": "https://www.okq8.se/pa-stationen/bensinstationer/kristinehamn-vastgotag-tanka/", "distance": 0}, {"station": "OKQ8", "city": "Kristinehamn,", "short_address": "V\u00e4sterl\u00e5nggatan", "formatted_address": "V\u00e4sterl\u00e5nggatan 4, 681 30 Kristinehamn, Sweden", "position": {"lat": 59.314624, "lng": 14.1031026}, "place_id": "ChIJc0wfsS6RXEYREEZ1zNqj2nU", "oktan": "Ja", "source": "https://www.okq8.se/pa-stationen/bensinstationer/kristinehamn-vasterlangg/", "distance": 0}, {"station": "OKQ8", "city": "Skillingaryd,", "formatted_address": "568 92 Klevshult, Sweden", "position": {"lat": 57.35345539999999, "lng": 14.0990717}, "place_id": "ChIJIZLN3qi9UEYR6HFXQxNtAQs", "oktan": "Ja", "source": "https://www.okq8.se/pa-stationen/bensinstationer/skillingaryd-klevshult/", "distance": 0}, {"station": "OKQ8", "city": "Lax\u00e5,", "short_address": "Revirv\u00e4gen", "formatted_address": "RIKSV\u00c4GEN, Revirv\u00e4gen 1, 695 30 Lax\u00e5, Sweden", "position": {"lat": 58.98570580000001, "lng": 14.6360435}, "place_id": "ChIJDzHMyruHW0YRh5hgOl23a8w", "oktan": "Ja", "source": "https://www.okq8.se/pa-stationen/bensinstationer/laxa-riksvagen-revirg/", "distance": 0}, {"station": "OKQ8", "city": "Sunne,", "short_address": "Norrg\u00e5rdsgatan", "formatted_address": "Norrg\u00e5rdsgatan 3, 686 35 Sunne, Sweden", "position": {"lat": 59.8371426, "lng": 13.1280291}, "place_id": "ChIJIdNp1VUhQ0YRR5JYVAfwMNw", "oktan": "Ja", "source": "https://www.okq8.se/pa-stationen/bensinstationer/sunne-sorgardsgatan/", "distance": 0}, {"station": "OKQ8", "city": "Sunne,", "short_address": "Norrg\u00e5rdsgatan", "formatted_address": "Norrg\u00e5rdsgatan 1, 686 35 Sunne, Sweden", "position": {"lat": 59.8380652, "lng": 13.1285773}, "place_id": "ChIJq3OSJ1QhQ0YRTn9gmgFbTQU", "oktan": "Ja", "source": "https://www.okq8.se/pa-stationen/bensinstationer/sunne-norrgardsgatan-tanka/", "distance": 0}, {"station": "OKQ8", "city": "N\u00e4ssj\u00f6,", "short_address": "R\u00e5dhusgatan", "formatted_address": "R\u00e5dhusgatan 68, 571 33 N\u00e4ssj\u00f6, Sweden", "position": {"lat": 57.6585569, "lng": 14.6916258}, "place_id": "ChIJ9_NttnQDWkYRr3EzApZNMoc", "oktan": "Ja", "source": "https://www.okq8.se/pa-stationen/bensinstationer/nassjo-radhusgatan/", "distance": 0}, {"station": "OKQ8", "city": "V\u00e4rnamo,", "short_address": "Fredsgatan", "formatted_address": "Fredsgatan 4, 331 52 V\u00e4rnamo, Sweden", "position": {"lat": 57.1826869, "lng": 14.0262988}, "place_id": "ChIJi4fxKvnAUEYRdkSS72GKRr0", "oktan": "Ja", "source": "https://www.okq8.se/pa-stationen/bensinstationer/varnamo-halmstadsvagen/", "distance": 0}, {"station": "OKQ8", "city": "Motala,", "short_address": "Vintergatan", "formatted_address": "Vintergatan 25, 591 32 Motala, Sweden", "position": {"lat": 58.54234460000001, "lng": 15.0138103}, "place_id": "ChIJkz69OynDW0YRak6RbJAhu_w", "oktan": "Ja", "source": "https://www.okq8.se/pa-stationen/bensinstationer/motala-vintergatan/", "distance": 0}, {"station": "OKQ8", "city": "Karlskoga,", "short_address": "Tibastv\u00e4gen", "formatted_address": "Tibastv\u00e4gen 8, 691 47 Karlskoga, Sweden", "position": {"lat": 59.2999368, "lng": 14.491434}, "place_id": "ChIJO28cq5qJXEYRt8w12-r7Amw", "oktan": "Ja", "source": "https://www.okq8.se/pa-stationen/bensinstationer/karlskoga-tibastvagen-tanka/", "distance": 0}, {"station": "OKQ8", "city": "Karlskoga,", "short_address": "Selma Lagerl\u00f6fs V\u00e4g", "formatted_address": "Selma Lagerl\u00f6fs v\u00e4g 1, 691 38 Karlskoga, Sweden", "position": {"lat": 59.3242114, "lng": 14.4974616}, "place_id": "ChIJVdWf8jGKXEYRgv3NPndvV8M", "oktan": "Ja", "source": "https://www.okq8.se/pa-stationen/bensinstationer/karlskoga-selma-lagerlofs-vag/", "distance": 0}, {"station": "OKQ8", "city": "V\u00e4rnamo,", "short_address": "Bredastensv\u00e4gen", "formatted_address": "Bredastensv\u00e4gen 2, 331 44 V\u00e4rnamo, Sweden", "position": {"lat": 57.1615319, "lng": 14.0752083}, "place_id": "ChIJBetkwZvBUEYR5T7Eo_NGRUw", "oktan": "Ja", "source": "https://www.okq8.se/pa-stationen/bensinstationer/varnamo-bredasten/", "distance": 0}, {"station": "OKQ8", "city": "Boxholm,", "short_address": "V\u00e4sterleden", "formatted_address": "V\u00e4sterleden 1, 590 11 Boxholm, Sweden", "position": {"lat": 58.2020061, "lng": 15.0634049}, "place_id": "ChIJNepkcNoqWkYRcnN4WTybVTQ", "oktan": "Ja", "source": "https://www.okq8.se/pa-stationen/bensinstationer/boxholm-vasterleden/", "distance": 0}, {"station": "OKQ8", "city": "V\u00e4rnamo,", "short_address": "Bredastensv\u00e4gen", "formatted_address": "Bredastensv\u00e4gen 3, 331 44 V\u00e4rnamo, Sweden", "position": {"lat": 57.16047220000001, "lng": 14.0757721}, "place_id": "ChIJATF8kC3BUEYRgFV9SQ-BxRw", "oktan": "Ja", "source": "https://www.okq8.se/pa-stationen/bensinstationer/varnamo/", "distance": 0}, {"station": "OKQ8", "city": "Mj\u00f6lby,", "short_address": "Sparregatan", "formatted_address": "Sparregatan 11, 595 35 Mj\u00f6lby, Sweden", "position": {"lat": 58.3234316, "lng": 15.091294}, "place_id": "ChIJkR-vSZTWW0YRXPJ-TzfCTLE", "oktan": "Ja", "source": "https://www.okq8.se/pa-stationen/bensinstationer/mjolby-vastra-trafikplats/", "distance": 0}, {"station": "OKQ8", "city": "Mj\u00f6lby,", "short_address": "Kungsv\u00e4gen", "formatted_address": "Kungsv\u00e4gen 1, 595 51 Mj\u00f6lby, Sweden", "position": {"lat": 58.3320927, "lng": 15.1503045}, "place_id": "ChIJ5R2iX0XWW0YRdpA1f-tUanc", "oktan": "Ja", "source": "https://www.okq8.se/pa-stationen/bensinstationer/mjolby-kungsgatan-tanka/", "distance": 0}, {"station": "OKQ8", "city": "Fjugesta,", "short_address": "Fjugesta Letstig", "formatted_address": "Fjugesta Letstig 17, 716 30 Fjugesta, Sweden", "position": {"lat": 59.17225019999999, "lng": 14.8713466}, "place_id": "ChIJPbnmvtVxXEYRNGlVf2zg5gA", "oktan": "Ja", "source": "https://www.okq8.se/pa-stationen/bensinstationer/fjugesta-letstigen/", "distance": 0}, {"station": "OKQ8", "city": "Halmstad,", "short_address": "Olofsdalsv\u00e4gen", "formatted_address": "Olofsdalsv\u00e4gen 38, 302 41 Halmstad, Sweden", "position": {"lat": 56.6744679, "lng": 12.7998859}, "place_id": "ChIJjRFc4d28UUYRTqpPybIF9DQ", "oktan": "Ja", "source": "https://www.okq8.se/pa-stationen/bensinstationer/halmstad-flygstaden/", "distance": 0}, {"station": "OKQ8", "city": "Eksj\u00f6,", "short_address": "Stallbergav\u00e4gen", "formatted_address": "Stallbergav\u00e4gen 2, 575 96 Eksj\u00f6, Sweden", "position": {"lat": 57.64824280000001, "lng": 14.9519604}, "place_id": "ChIJ4RZeBR_6WUYRdDjxBC3MQVg", "oktan": "Ja", "source": "https://www.okq8.se/pa-stationen/bensinstationer/eksjo-stallbergav/", "distance": 0}, {"station": "OKQ8", "city": "Halmstad,", "short_address": "Frennarpsv\u00e4gen", "formatted_address": "Frennarpsv\u00e4gen 2, 302 44 Halmstad, Sweden", "position": {"lat": 56.6741396, "lng": 12.8936975}, "place_id": "ChIJGRLuyw6jUUYRiKg5cfxlW1c", "oktan": "Ja", "source": "https://www.okq8.se/pa-stationen/bensinstationer/halmstad-frennarpsvagen/", "distance": 0}, {"station": "OKQ8", "city": "Filipstad,", "short_address": "Konsul Lundstr\u00f6ms V\u00e4g", "formatted_address": "Konsul Lundstr\u00f6ms v\u00e4g 2, 682 33 Filipstad, Sweden", "position": {"lat": 59.7128605, "lng": 14.1532139}, "place_id": "ChIJkVZDx_DdXEYRjxxO4R97tgY", "oktan": "Ja", "source": "https://www.okq8.se/pa-stationen/bensinstationer/filipstad-konsul-lundstrv/", "distance": 0}, {"station": "OKQ8", "city": "Filipstad,", "short_address": "Sch\u00e9elegatan", "formatted_address": "Sch\u00e9elegatan 2, 682 33 Filipstad, Sweden", "position": {"lat": 59.71443370000001, "lng": 14.174598}, "place_id": "ChIJPVxRL1fnXEYRorduwVIRgWg", "oktan": "Ja", "source": "https://www.okq8.se/pa-stationen/bensinstationer/filipstad-scheelegat-tanka/", "distance": 0}, {"station": "OKQ8", "city": "Hallsberg,", "short_address": "Tegelgatan", "formatted_address": "Tegelgatan 9, 694 32 Hallsberg, Sweden", "position": {"lat": 59.07038170000001, "lng": 15.1008806}, "place_id": "ChIJh9j1wo0MXEYR56UcrWAfD9Q", "oktan": "Ja", "source": "https://www.okq8.se/pa-stationen/bensinstationer/hallsberg-samzeliigatan/", "distance": 0}, {"station": "OKQ8", "city": "Vikingstad,", "short_address": "\u00c5storpsgatan", "formatted_address": "\u00c5storpsgatan 2, 590 49 Vikingstad, Sweden", "position": {"lat": 58.3767617, "lng": 15.4267674}, "place_id": "ChIJGS7w8sBkWUYRIG2OGLMJplk", "oktan": "Ja", "source": "https://www.okq8.se/pa-stationen/bensinstationer/vikingstad/", "distance": 0}, {"station": "OKQ8", "city": "Kumla,", "short_address": "Stenev\u00e4gen", "formatted_address": "Stenev\u00e4gen 19, 692 35 Kumla, Sweden", "position": {"lat": 59.1237637, "lng": 15.1346505}, "place_id": "ChIJ1x-Jx3MNXEYRnpSEgnKUnH4", "oktan": "Ja", "source": "https://www.okq8.se/pa-stationen/bensinstationer/kumla-stenevagen/", "distance": 0}, {"station": "OKQ8", "city": "Torsby,", "short_address": "E16", "formatted_address": "Toria center, E16, 685 32 Torsby, Sweden", "position": {"lat": 60.13053739999999, "lng": 12.9935888}, "place_id": "ChIJMRXZ4qnoQkYRTD-saOtHvFw", "oktan": "Ja", "source": "https://www.okq8.se/pa-stationen/bensinstationer/torsby-toria-center-tanka/", "distance": 0}, {"station": "OKQ8", "city": "Ljungby,", "short_address": "Nyponv\u00e4gen", "formatted_address": "Nyponv\u00e4gen, Ljungby, Sweden", "position": {"lat": 56.8107269, "lng": 13.9073468}, "place_id": "EhxOeXBvbnbDpGdlbiwgTGp1bmdieSwgU3dlZGVuIi4qLAoUChIJ8_7AdtAmUUYRQ33xKVkZXHYSFAoSCTPWUkClxFBGEQLFadHgfsHi", "oktan": "Ja", "source": "https://www.okq8.se/pa-stationen/bensinstationer/ljungby-tanka/", "distance": 0}, {"station": "OKQ8", "city": "Ljungsbro,", "short_address": "Norra Cloettav\u00e4gen", "formatted_address": "Norra Cloettav\u00e4gen 20, 590 71 Ljungsbro, Sweden", "position": {"lat": 58.50841369999999, "lng": 15.5011475}, "place_id": "ChIJyU2kVT5nWUYRy5lFOYiGqgs", "oktan": "Ja", "source": "https://www.okq8.se/pa-stationen/bensinstationer/ljungsbro-cloettavagen/", "distance": 0}, {"station": "OKQ8", "city": "Vetlanda,", "short_address": "Kolv\u00e4gen", "formatted_address": "Kolv\u00e4gen 23, 574 35 Vetlanda, Sweden", "position": {"lat": 57.4456929, "lng": 15.0618342}, "place_id": "ChIJFTRJGPNYV0YRd5fjoNW1yXE", "oktan": "Ja", "source": "https://www.okq8.se/pa-stationen/bensinstationer/vetlanda-kolvagen-tanka/", "distance": 0}, {"station": "OKQ8", "city": "Hagfors,", "short_address": "Blomv\u00e4gen", "formatted_address": "Blomv\u00e4gen 2, 683 33 Hagfors, Sweden", "position": {"lat": 60.0199991, "lng": 13.6918757}, "place_id": "ChIJS8m4jNDSQkYRmebWF1fLvGo", "oktan": "Ja", "source": "https://www.okq8.se/pa-stationen/bensinstationer/hagfors-blomvagen/", "distance": 0}, {"station": "OKQ8", "city": "Vetlanda,", "short_address": "Storgatan", "formatted_address": "Storgatan 83, 574 31 Vetlanda, Sweden", "position": {"lat": 57.4335658, "lng": 15.0711229}, "place_id": "ChIJnUQMEeZYV0YR6_gqU_vt-Zg", "oktan": "Ja", "source": "https://www.okq8.se/pa-stationen/bensinstationer/vetlanda-storgatan/", "distance": 0}, {"station": "OKQ8", "city": "Link\u00f6ping,", "short_address": "Nyg\u00e5rdsinfarten", "formatted_address": "Nyg\u00e5rdsinfarten 1, 586 43 Link\u00f6ping, Sweden", "position": {"lat": 58.4325255, "lng": 15.5830261}, "place_id": "ChIJt5y_XatoWUYRTR3OISVZcz8", "oktan": "Ja", "source": "https://www.okq8.se/pa-stationen/bensinstationer/linkoping/", "distance": 0}, {"station": "OKQ8", "city": "\u00d6rebro,", "short_address": "V\u00e4sthagagatan", "formatted_address": "V\u00e4sthagagatan 7, 703 46 \u00d6rebro, Sweden", "position": {"lat": 59.27096909999999, "lng": 15.175841}, "place_id": "ChIJLeZW-tAUXEYRtKQdzuvPeyQ", "oktan": "Ja", "source": "https://www.okq8.se/pa-stationen/bensinstationer/orebro-vasthagagatan/", "distance": 0}, {"station": "OKQ8", "city": "\u00d6rebro,", "short_address": "S\u00f6dermalmsplan", "formatted_address": "S\u00f6dermalmsplan 5, 702 25 \u00d6rebro, Sweden", "position": {"lat": 59.2650832, "lng": 15.1989669}, "place_id": "ChIJlT9h2ecUXEYRrRqGccPJRog", "oktan": "Ja", "source": "https://www.okq8.se/pa-stationen/bensinstationer/orebro-sodermalmsplan/", "distance": 0}, {"station": "OKQ8", "city": "\u00d6rebro,", "short_address": "Hagmarksgatan", "formatted_address": "Hagmarksgatan 45, 702 16 \u00d6rebro, Sweden", "position": {"lat": 59.26537760000001, "lng": 15.2386497}, "place_id": "ChIJJTAAcVYUXEYR20W074ESVEk", "oktan": "Ja", "source": "https://www.okq8.se/pa-stationen/bensinstationer/orebro-hagmarksgatan/", "distance": 0}, {"station": "OKQ8", "city": "Link\u00f6ping,", "short_address": "Vigfastgatan", "formatted_address": "Vigfastgatan 1, 582 78 Link\u00f6ping, Sweden", "position": {"lat": 58.41751180000001, "lng": 15.6390558}, "place_id": "ChIJ9ddikilvWUYRLmDEzxywfMA", "oktan": "Ja", "source": "https://www.okq8.se/pa-stationen/bensinstationer/linkoping-vigfastg-1-tanka/", "distance": 0}, {"station": "OKQ8", "city": "H\u00e4llefors,", "short_address": "Svart\u00e4lvsv\u00e4gen", "formatted_address": "Svart\u00e4lvsv\u00e4gen 8, 712 30 H\u00e4llefors, Sweden", "position": {"lat": 59.7698229, "lng": 14.522066}, "place_id": "ChIJMSnMOVL9XEYRmiPmwgI_HR4", "oktan": "Ja", "source": "https://www.okq8.se/pa-stationen/bensinstationer/hallefors-svartalvsvagen/", "distance": 0}, {"station": "OKQ8", "city": "Laholm,", "short_address": "Industrigatan", "formatted_address": "Industrigatan 6, 312 34 Laholm, Sweden", "position": {"lat": 56.5011398, "lng": 13.0293562}, "place_id": "ChIJP9rcLAJ2UUYRVcbNtqRQVrA", "oktan": "Ja", "source": "https://www.okq8.se/pa-stationen/bensinstationer/laholm-industrigat-tanka/", "distance": 0}, {"station": "OKQ8", "city": "Link\u00f6ping,", "short_address": "Kylarev\u00e4gen", "formatted_address": "Kylarev\u00e4gen 1, 587 23 Link\u00f6ping, Sweden", "position": {"lat": 58.3996091, "lng": 15.6535063}, "place_id": "ChIJd5NqhcJuWUYRfHizEqrn0X0", "oktan": "Ja", "source": "https://www.okq8.se/pa-stationen/bensinstationer/linkoping-kylarevagen/", "distance": 0}, {"station": "OKQ8", "city": "\u00d6rebro,", "short_address": "Bettorpsgatan", "formatted_address": "Bettorpsgatan 4-6, 703 69 \u00d6rebro, Sweden", "position": {"lat": 59.2978531, "lng": 15.229922}, "place_id": "ChIJH0F63WwVXEYRpjma0JBENOc", "oktan": "Ja", "source": "https://www.okq8.se/pa-stationen/bensinstationer/orebro-bettorpsg-tanka/", "distance": 0}, {"station": "OKQ8", "city": "Kisa,", "short_address": "Kalmarv\u00e4gen", "formatted_address": "Kalmarv\u00e4gen 20, 590 38 Kisa, Sweden", "position": {"lat": 57.98198850000001, "lng": 15.6380313}, "place_id": "ChIJYdX9y-qiWUYROcWATaQSkE8", "oktan": "Ja", "source": "https://www.okq8.se/pa-stationen/bensinstationer/kisa-kalmarvagen-tanka/", "distance": 0}, {"station": "OKQ8", "city": "Lesj\u00f6fors,", "short_address": "Bergslagsgatan", "formatted_address": "Bergslagsgatan 59, 680 96 Lesj\u00f6fors, Sweden", "position": {"lat": 59.97339339999999, "lng": 14.1877536}, "place_id": "ChIJlev_gW4jXUYR7BgQi9hQuTQ", "oktan": "Ja", "source": "https://www.okq8.se/pa-stationen/bensinstationer/lesjofors-bergslagsgatan/", "distance": 0}, {"station": "OKQ8", "city": "Eksh\u00e4rad,", "short_address": "Klar\u00e4lvsv\u00e4gen", "formatted_address": "Klar\u00e4lvsv\u00e4gen 15, 683 60 Eksh\u00e4rad, Sweden", "position": {"lat": 60.1740858, "lng": 13.4954406}, "place_id": "ChIJZ1LZM63IQkYRLn3NW5Fu_Uo", "oktan": "Ja", "source": "https://www.okq8.se/pa-stationen/bensinstationer/eksharad-klaralvsvagen/", "distance": 0}, {"station": "OKQ8", "city": "B\u00e5stad,", "short_address": "Hallandsv\u00e4gen", "formatted_address": "Hallandsv\u00e4gen 45, 269 36 B\u00e5stad, Sweden", "position": {"lat": 56.42702079999999, "lng": 12.8762137}, "place_id": "ChIJ8Xdh_EuDUUYRnrF4q9FvcUA", "oktan": "Ja", "source": "https://www.okq8.se/pa-stationen/bensinstationer/bastad-hallandsvagen/", "distance": 0}, {"station": "OKQ8", "city": "B\u00e5stad,", "short_address": "Lannam\u00e4rkesv\u00e4gen", "formatted_address": "Lannam\u00e4rkesv\u00e4gen 390, 269 96 B\u00e5stad, Sweden", "position": {"lat": 56.3887692, "lng": 12.9366356}, "place_id": "ChIJ4YbW4IyCUUYRS-YSDBM1aWY", "oktan": "Ja", "source": "https://www.okq8.se/pa-stationen/bensinstationer/bastad-ostra-karup/", "distance": 0}, {"station": "OKQ8", "city": "Lindesberg,", "short_address": "Fotbollsgatan", "formatted_address": "Fotbollsgatan 2, 711 34 Lindesberg, Sweden", "position": {"lat": 59.60328099999999, "lng": 15.2073195}, "place_id": "ChIJDfOb06pOXEYRbkgwUOf_qPU", "oktan": "Ja", "source": "https://www.okq8.se/pa-stationen/bensinstationer/lindesberg-bergslagsv-tanka/", "distance": 0}, {"station": "OKQ8", "city": "V\u00e4xj\u00f6,", "short_address": "Arabygatan", "formatted_address": "Arabygatan 53, 352 46 V\u00e4xj\u00f6, Sweden", "position": {"lat": 56.8947504, "lng": 14.7805323}, "place_id": "ChIJ_4LJOmUkV0YRItKGV2GJqSQ", "oktan": "Ja", "source": "https://www.okq8.se/pa-stationen/bensinstationer/vaxjo-arabygatan/", "distance": 0}, {"station": "OKQ8", "city": "V\u00e4xj\u00f6,", "short_address": "Ljungadalsgatan", "formatted_address": "Ljungadalsgatan 1-3, 352 46 V\u00e4xj\u00f6, Sweden", "position": {"lat": 56.88491399999999, "lng": 14.7716262}, "place_id": "ChIJUfnP_2wkV0YR0IF3PD_bQHI", "oktan": "Ja", "source": "https://www.okq8.se/pa-stationen/bensinstationer/vaxjo-ljungadalsg-tanka/", "distance": 0}, {"station": "OKQ8", "city": "V\u00e4xj\u00f6,", "short_address": "Sambandsv\u00e4gen", "formatted_address": "Sambandsv\u00e4gen 2, 352 36 V\u00e4xj\u00f6, Sweden", "position": {"lat": 56.8783614, "lng": 14.775274}, "place_id": "ChIJG12GpA0kV0YRq0lvkxJq4wQ", "oktan": "Ja", "source": "https://www.okq8.se/pa-stationen/bensinstationer/vaxjo-sambandsvagen/", "distance": 0}, {"station": "OKQ8", "city": "V\u00e4xj\u00f6,", "short_address": "Norremarksv\u00e4gen", "formatted_address": "Norremarksv\u00e4gen 2, 352 45 V\u00e4xj\u00f6, Sweden", "position": {"lat": 56.9017694, "lng": 14.8274252}, "place_id": "ChIJG-7A-3YjV0YRJ3059opkNmM", "oktan": "Ja", "source": "https://www.okq8.se/pa-stationen/bensinstationer/vaxjo-norremarksvagen/", "distance": 0}, {"station": "OKQ8", "city": "Sk\u00e5nes Fagerhult,", "short_address": "Snapphaneall\u00e9n", "formatted_address": "Snapphaneall\u00e9n 6, 286 73 Sk\u00e5nes Fagerhult, Sweden", "position": {"lat": 56.36178959999999, "lng": 13.4747184}, "place_id": "ChIJs-Db5d1nUUYRAiofYbhv-y0", "oktan": "Ja", "source": "https://www.okq8.se/pa-stationen/bensinstationer/skanes-fagerhult/", "distance": 0}, {"station": "OKQ8", "city": "\u00c4ngelholm,", "short_address": "Kungsg\u00e5rdsleden", "formatted_address": "Kungsg\u00e5rdsleden, \u00c4ngelholm, Sweden", "position": {"lat": 56.260107, "lng": 12.8858865}, "place_id": "EiRLdW5nc2fDpXJkc2xlZGVuLCDDhG5nZWxob2xtLCBTd2VkZW4iLiosChQKEgkb_9L_nypSRhEQf7ERBXZjZxIUChIJt-o2sOR_UUYRAHsOKXiQAQQ", "oktan": "Ja", "source": "https://www.okq8.se/pa-stationen/bensinstationer/angelholm-kungsgardsl-tanka/", "distance": 0}, {"station": "OKQ8", "city": "Norrk\u00f6ping,", "short_address": "E4", "formatted_address": "E4, 605 97 Norrk\u00f6ping, Sweden", "position": {"lat": 58.5709864, "lng": 16.0821554}, "place_id": "ChIJt2k_Djk5WUYRZdC8CCV_nYM", "oktan": "Ja", "source": "https://www.okq8.se/pa-stationen/bensinstationer/norrkoping-skarblackav/", "distance": 0}, {"station": "OKQ8", "city": "Vimmerby,", "short_address": "Maskingatan", "formatted_address": "Maskingatan 5, 598 40 Vimmerby, Sweden", "position": {"lat": 57.6619123, "lng": 15.8490793}, "place_id": "ChIJsbxzf1fJWUYRZ-3KzPZDUoA", "oktan": "Ja", "source": "https://www.okq8.se/pa-stationen/bensinstationer/vimmerby-maskingatan-tanka/", "distance": 0}, {"station": "OKQ8", "city": "Norrk\u00f6ping,", "short_address": "Moa Martinsons Gata", "formatted_address": "Moa Martinsons gata 6, 603 78 Norrk\u00f6ping, Sweden", "position": {"lat": 58.581011, "lng": 16.1342534}, "place_id": "ChIJlRjdgdg7WUYRgpE83eMHsUI", "oktan": "Ja", "source": "https://www.okq8.se/pa-stationen/bensinstationer/norrkoping-moa-martinssons-g/", "distance": 0}, {"station": "OKQ8", "city": "Norrk\u00f6ping,", "short_address": "Vagngatan", "formatted_address": "Vagngatan 25, 603 63 Norrk\u00f6ping, Sweden", "position": {"lat": 58.5782765, "lng": 16.160715}, "place_id": "ChIJI36W0cU7WUYRb_t0pgxZvV0", "oktan": "Ja", "source": "https://www.okq8.se/pa-stationen/bensinstationer/norrkoping-skarphagsleden/", "distance": 0}, {"station": "OKQ8", "city": "Norrk\u00f6ping,", "short_address": "Malmgatan", "formatted_address": "CityGross Ingelsta (Norrkoping), Malmgatan 41, 602 23 Norrk\u00f6ping, Sweden", "position": {"lat": 58.61627050000001, "lng": 16.174585}, "place_id": "ChIJ7Y5mSBg6WUYRy0KS-dKDqxY", "oktan": "Ja", "source": "https://www.okq8.se/pa-stationen/bensinstationer/norrkoping-ingelsta/", "distance": 0}, {"station": "OKQ8", "city": "Norrk\u00f6ping,", "short_address": "Hagebygatan", "formatted_address": "Hagebygatan 241, 603 62 Norrk\u00f6ping, Sweden", "position": {"lat": 58.56773519999999, "lng": 16.2159708}, "place_id": "ChIJQ10iIAw7WUYRvSMMBWqWngk", "oktan": "Ja", "source": "https://www.okq8.se/pa-stationen/bensinstationer/norrkoping-hagebygatan/", "distance": 0}, {"station": "OKQ8", "city": "Norrk\u00f6ping,", "short_address": "Exportgatan", "formatted_address": "Exportgatan 9, 602 28 Norrk\u00f6ping, Sweden", "position": {"lat": 58.58833420000001, "lng": 16.2174499}, "place_id": "ChIJH1Qef_86WUYRmxBwhd2e1K8", "oktan": "Ja", "source": "https://www.okq8.se/pa-stationen/bensinstationer/norrkoping-exportg-9-tanka/", "distance": 0}, {"station": "OKQ8", "city": "Arboga,", "short_address": "E20", "formatted_address": "S\u00e4tra Trafikplats E18, E20, 732 50 Arboga, Sweden", "position": {"lat": 59.4259115, "lng": 15.8292107}, "place_id": "ChIJyXSozvwnXEYRJOdtJEI-PDI", "oktan": "Ja", "source": "https://www.okq8.se/pa-stationen/bensinstationer/arboga-satra-malarporten/", "distance": 0}, {"station": "OKQ8", "city": "S\u00f6derk\u00f6ping,", "short_address": "L\u00e4nsmansgatan", "formatted_address": "L\u00e4nsmansgatan 2, 614 31 S\u00f6derk\u00f6ping, Sweden", "position": {"lat": 58.47624479999999, "lng": 16.3354437}, "place_id": "ChIJkbsZMrUjWUYRLZDrIMNbeVs", "oktan": "Ja", "source": "https://www.okq8.se/pa-stationen/bensinstationer/soderkoping-lansmansgatan/", "distance": 0}, {"station": "OKQ8", "city": "Katrineholm,", "short_address": "Vassmogatan", "formatted_address": "Vassmogatan 1, 641 49 Katrineholm, Sweden", "position": {"lat": 58.99830530000001, "lng": 16.2213513}, "place_id": "ChIJHf1UjPG3XkYRg-2NLnjC3Pw", "oktan": "Ja", "source": "https://www.okq8.se/pa-stationen/bensinstationer/katrineholm-vassmogatan/", "distance": 0}, {"station": "OKQ8", "city": "Katrineholm,", "short_address": "Starrv\u00e4gen", "formatted_address": "Starrv\u00e4gen 9, 641 49 Katrineholm, Sweden", "position": {"lat": 59.0011306, "lng": 16.2235616}, "place_id": "ChIJt-myXPG3XkYRoxUJsGLukC4", "oktan": "Ja", "source": "https://www.okq8.se/pa-stationen/bensinstationer/katrineholm-starrv-tanka/", "distance": 0}, {"station": "OKQ8", "city": "Helsingborg,", "short_address": "Bergav\u00e4gen", "formatted_address": "Bergav\u00e4gen 4, 254 66 Helsingborg, Sweden", "position": {"lat": 56.0699917, "lng": 12.7187287}, "place_id": "ChIJB9D9k24yUkYRo0H9i2sSXWM", "oktan": "Ja", "source": "https://www.okq8.se/pa-stationen/bensinstationer/helsingborg-bergav-tanka/", "distance": 0}, {"station": "OKQ8", "city": "Helsingborg,", "short_address": "V\u00e4lav\u00e4gen", "formatted_address": "V\u00e4lav\u00e4gen 27, 254 64 Helsingborg, Sweden", "position": {"lat": 56.0654829, "lng": 12.7481125}, "place_id": "ChIJsUE4V4kyUkYRRH82bSjMozs", "oktan": "Ja", "source": "https://www.okq8.se/pa-stationen/bensinstationer/helsingborg-valavagen/", "distance": 0}, {"station": "OKQ8", "city": "Helsingborg,", "short_address": "\u00c4ngelholmsv\u00e4gen", "formatted_address": "\u00c4ngelholmsv\u00e4gen 8, 254 42 Helsingborg, Sweden", "position": {"lat": 56.0581319, "lng": 12.7048495}, "place_id": "ChIJSYKBNUcyUkYRqJ3_kvla7JI", "oktan": "Ja", "source": "https://www.okq8.se/pa-stationen/bensinstationer/helsingborg-angelholmsv/", "distance": 0}, {"station": "OKQ8", "city": "Ringarum,", "short_address": "Kyrk\u00e4ngsv\u00e4gen", "formatted_address": "Kyrk\u00e4ngsv\u00e4gen 1, 610 41 Ringarum, Sweden", "position": {"lat": 58.3346336, "lng": 16.4541458}, "place_id": "ChIJMTvkUOThWEYRyRmKvntclcU", "oktan": "Ja", "source": "https://www.okq8.se/pa-stationen/bensinstationer/ringarum-kyrkangsvagen/", "distance": 0}, {"station": "OKQ8", "city": "K\u00f6ping,", "short_address": "Ringv\u00e4gen", "formatted_address": "Ringv\u00e4gen 75, 731 33 K\u00f6ping, Sweden", "position": {"lat": 59.51993049999999, "lng": 15.9726934}, "place_id": "ChIJk-KybPqBXkYRlVNahfQ8xDM", "oktan": "Ja", "source": "https://www.okq8.se/pa-stationen/bensinstationer/koping-ringvagen-tanka/", "distance": 0}, {"station": "OKQ8", "city": "K\u00f6ping,", "short_address": "Hultgrensgatan", "formatted_address": "G:A Q8 MACKEN, Hultgrensgatan 12, 731 50 K\u00f6ping, Sweden", "position": {"lat": 59.51250040000001, "lng": 15.9824353}, "place_id": "ChIJ0Yxhk_WBXkYRfYJgL68BE2o", "oktan": "Ja", "source": "https://www.okq8.se/pa-stationen/bensinstationer/koping-hultgrensgatan-12/", "distance": 0}, {"station": "OKQ8", "city": "K\u00f6ping,", "short_address": "Hultgrensgatan", "formatted_address": "Hultgrensgatan 8, 731 50 K\u00f6ping, Sweden", "position": {"lat": 59.5105551, "lng": 15.9863974}, "place_id": "ChIJscyr4x-CXkYRMhlj16hZPkk", "oktan": "Ja", "source": "https://www.okq8.se/pa-stationen/bensinstationer/koping-hultgrensgatan-8/", "distance": 0}, {"station": "OKQ8", "city": "K\u00f6ping,", "short_address": "V\u00e4ster\u00e5sv\u00e4gen", "formatted_address": "V\u00e4ster\u00e5sv\u00e4gen 17, 731 41 K\u00f6ping, Sweden", "position": {"lat": 59.514374, "lng": 16.0066262}, "place_id": "ChIJyQuCK4-BXkYRZIEDNecAwBM", "oktan": "Ja", "source": "https://www.okq8.se/pa-stationen/bensinstationer/koping-vasterasvagen/", "distance": 0}, {"station": "OKQ8", "city": "H\u00e4ssleholm,", "short_address": "Tredje Avenyen", "formatted_address": "Tredje Avenyen 21, 281 32 H\u00e4ssleholm, Sweden", "position": {"lat": 56.1545202, "lng": 13.7661767}, "place_id": "ChIJk1XFQChWUUYRjM2YXwY5JrI", "oktan": "Ja", "source": "https://www.okq8.se/pa-stationen/bensinstationer/hassleholm-3e-avenyn/", "distance": 0}, {"station": "OKQ8", "city": "Alstermo,", "short_address": "Aspv\u00e4gen", "formatted_address": "Aspv\u00e4gen 9, 364 43 Alstermo, Sweden", "position": {"lat": 56.9714677, "lng": 15.6645671}, "place_id": "ChIJhXG0wAWhV0YRTptJ2-EypiU", "oktan": "Ja", "source": "https://www.okq8.se/pa-stationen/bensinstationer/alstermo-aspvagen/", "distance": 0}, {"station": "OKQ8", "city": "Ludvika,", "short_address": "Sn\u00f6\u00e5v\u00e4gen", "formatted_address": "Sn\u00f6\u00e5v\u00e4gen 18, 771 42 Ludvika, Sweden", "position": {"lat": 60.1306811, "lng": 15.1775622}, "place_id": "ChIJQZAm7t-eXUYRSik6JeFcTVM", "oktan": "Ja", "source": "https://www.okq8.se/pa-stationen/bensinstationer/ludvika-snoavagen/", "distance": 0}, {"station": "OKQ8", "city": "Ludvika,", "short_address": "Tunnelgatan", "formatted_address": "Tunnelgatan 2, 771 33 Ludvika, Sweden", "position": {"lat": 60.1443583, "lng": 15.1797212}, "place_id": "ChIJO0uqVeieXUYRaDAZEWALtnU", "oktan": "Ja", "source": "https://www.okq8.se/pa-stationen/bensinstationer/ludvika-tunnelgatan-tanka/", "distance": 0}, {"station": "OKQ8", "city": "Vansbro,", "short_address": "\u00c4lvgatan", "formatted_address": "\u00c4lvgatan 2, 780 50 Vansbro, Sweden", "position": {"lat": 60.50843640000001, "lng": 14.2292953}, "place_id": "ChIJBQr6vuJWXUYRiW4IEXYVeTE", "oktan": "Ja", "source": "https://www.okq8.se/pa-stationen/bensinstationer/vansbro-alvgatan/", "distance": 0}, {"station": "OKQ8", "city": "Glumsl\u00f6v,", "short_address": "Krokstorpsv\u00e4gen", "formatted_address": "Krokstorpsv\u00e4gen 40, 261 62 Glumsl\u00f6v, Sweden", "position": {"lat": 55.9411703, "lng": 12.81851}, "place_id": "ChIJbx9U86rLU0YRWs9puhFcHwo", "oktan": "Ja", "source": "https://www.okq8.se/pa-stationen/bensinstationer/glumslov-norrgaende/", "distance": 0}, {"station": "OKQ8", "city": "Glumsl\u00f6v,", "formatted_address": "V\u00e4g E6/E20 S\u00f6derg\u00e5ende, 261 62 Glumsl\u00f6v, Sweden", "position": {"lat": 55.93868620000001, "lng": 12.8177877}, "place_id": "ChIJzUUm6arLU0YRTyjJy-SzgZo", "oktan": "Ja", "source": "https://www.okq8.se/pa-stationen/bensinstationer/glumslov-sodergaende/", "distance": 0}, {"station": "OKQ8", "city": "Grang\u00e4rde,", "short_address": "G\u00e4rdsvedsv\u00e4gen", "formatted_address": "G\u00e4rdsvedsv\u00e4gen 3, 770 13 Grang\u00e4rde, Sweden", "position": {"lat": 60.27073710000001, "lng": 14.9834783}, "place_id": "ChIJvaVwezV3XUYR49_qGo7WTd4", "oktan": "Ja", "source": "https://www.okq8.se/pa-stationen/bensinstationer/grangarde-gardsvedsv/", "distance": 0}, {"station": "OKQ8", "city": "Olofstr\u00f6m,", "short_address": "Ekhagsv\u00e4gen", "formatted_address": "Ekhagsv\u00e4gen 1, 293 40 Olofstr\u00f6m, Sweden", "position": {"lat": 56.2759933, "lng": 14.5422134}, "place_id": "ChIJSdilBhG9VkYRT3YNEG7CP5g", "oktan": "Ja", "source": "https://www.okq8.se/pa-stationen/bensinstationer/olofstrom-ekhagsv-tanka/", "distance": 0}, {"station": "OKQ8", "city": "Malung,", "short_address": "K\u00e4llv\u00e4gen", "formatted_address": "K\u00e4llv\u00e4gen 10, 782 33 Malung, Sweden", "position": {"lat": 60.686933, "lng": 13.7215303}, "place_id": "ChIJ0RepbekcaEYRbXEx7LOY1VY", "oktan": "Ja", "source": "https://www.okq8.se/pa-stationen/bensinstationer/malung-morav-tanka/", "distance": 0}, {"station": "OKQ8", "city": "Landskrona,", "short_address": "H\u00e4lsingborgsv\u00e4gen", "formatted_address": "H\u00e4lsingborgsv\u00e4gen 44, 261 42 Landskrona, Sweden", "position": {"lat": 55.886593, "lng": 12.8316882}, "place_id": "ChIJY6cqB_S1U0YRmESn3IV6lyY", "oktan": "Ja", "source": "https://www.okq8.se/pa-stationen/bensinstationer/landskrona-tanka/", "distance": 0}, {"station": "OKQ8", "city": "Flen,", "short_address": "Brogatan", "formatted_address": "Brogatan 6, 642 34 Flen, Sweden", "position": {"lat": 59.0512738, "lng": 16.5974367}, "place_id": "ChIJ26FMTKrEXkYRR32YkANxjaw", "oktan": "Ja", "source": "https://www.okq8.se/pa-stationen/bensinstationer/flen-brogatan/", "distance": 0}, {"station": "OKQ8", "city": "Kvicksund,", "short_address": "Rasholmsv\u00e4gen", "formatted_address": "Rasholmsv\u00e4gen 9, 635 32 Kvicksund, Sweden", "position": {"lat": 59.4627851, "lng": 16.3161235}, "place_id": "ChIJVRyNiymPXkYRREOLs8bdb-I", "oktan": "Ja", "source": "https://www.okq8.se/pa-stationen/bensinstationer/kvicksund/", "distance": 0}, {"station": "OKQ8", "city": "Landskrona,", "short_address": "F\u00f6reningsgatan", "formatted_address": "F\u00f6reningsgatan 220, 261 51 Landskrona, Sweden", "position": {"lat": 55.8724611, "lng": 12.8490682}, "place_id": "ChIJZ4cu7uG1U0YRm3-iqxQt0gY", "oktan": "Ja", "source": "https://www.okq8.se/pa-stationen/bensinstationer/landskrona-foreningsg/", "distance": 0}, {"station": "OKQ8", "city": "V\u00e4stervik,", "short_address": "All\u00e9n", "formatted_address": "All\u00e9n 76, 593 61 V\u00e4stervik, Sweden", "position": {"lat": 57.7613786, "lng": 16.6107781}, "place_id": "ChIJ1enaGUpCWEYRpD2j_Mcs6bA", "oktan": "Ja", "source": "https://www.okq8.se/pa-stationen/bensinstationer/vastervik-allen/", "distance": 0}, {"station": "OKQ8", "city": "Eskilstuna,", "short_address": "E20", "formatted_address": "E20, Eskilstuna, Sweden", "position": {"lat": 59.4044706, "lng": 16.4224579}, "place_id": "EhdFMjAsIEVza2lsc3R1bmEsIFN3ZWRlbiIuKiwKFAoSCV_RAh6S4llGEUmMd4Jxl9zQEhQKEglf6KEKs5NeRhHQjeRB8_4ABA", "oktan": "Ja", "source": "https://www.okq8.se/pa-stationen/bensinstationer/eskilstuna-folkesta/", "distance": 0}, {"station": "OKQ8", "city": "Eskilstuna,", "short_address": "Skjulstagatan", "formatted_address": "Skjulstagatan 2, 632 29 Eskilstuna, Sweden", "position": {"lat": 59.3419908, "lng": 16.4862872}, "place_id": "ChIJRTjcaVLtXkYRaFGjpqzafEI", "oktan": "Ja", "source": "https://www.okq8.se/pa-stationen/bensinstationer/eskilstuna-skjulstagatan/", "distance": 0}, {"station": "OKQ8", "city": "Stigtomta,", "short_address": "B\u00e4rbov\u00e4gen", "formatted_address": "B\u00e4rbov\u00e4gen 21, 611 72 Stigtomta, Sweden", "position": {"lat": 58.80291019999999, "lng": 16.7851086}, "place_id": "ChIJQ0DGcWYqX0YRKiSdS9qqGkw", "oktan": "Ja", "source": "https://www.okq8.se/pa-stationen/bensinstationer/stigtomta-barbovagen/", "distance": 0}, {"station": "OKQ8", "city": "Torsh\u00e4lla,", "short_address": "Eskilstunav\u00e4gen", "formatted_address": "Eskilstunav\u00e4gen 31, 644 30 Torsh\u00e4lla, Sweden", "position": {"lat": 59.4111411, "lng": 16.4773208}, "place_id": "ChIJ-wEUbeaMXkYRWBQa9x_ipHw", "oktan": "Ja", "source": "https://www.okq8.se/pa-stationen/bensinstationer/torshalla-eskilstunavagen/", "distance": 0}, {"station": "OKQ8", "city": "Fagersta,", "short_address": "Norbergsv\u00e4gen", "formatted_address": "Norbergsv\u00e4gen 2, 737 48 Fagersta, Sweden", "position": {"lat": 60.0080953, "lng": 15.7864816}, "place_id": "ChIJH14ik__BXUYRtDRK2ThpPIA", "oktan": "Ja", "source": "https://www.okq8.se/pa-stationen/bensinstationer/fagersta-norbergsv/", "distance": 0}, {"station": "OKQ8", "city": "Eskilstuna,", "short_address": "Lundbladsv\u00e4gen", "formatted_address": "Lundbladsv\u00e4gen 6, Eskilstuna, Sweden", "position": {"lat": 59.3662678, "lng": 16.5211759}, "place_id": "ChIJLZcMeLnyXkYR9kefwM4CUQk", "oktan": "Ja", "source": "https://www.okq8.se/pa-stationen/bensinstationer/eskilstuna-lundbladsv/", "distance": 0}, {"station": "OKQ8", "city": "Eskilstuna,", "short_address": "V\u00e4stergatan", "formatted_address": "V\u00e4stergatan 13, 633 44 Eskilstuna, Sweden", "position": {"lat": 59.377768, "lng": 16.5197056}, "place_id": "ChIJuynoLM_yXkYR4ExSTy7aaIk", "oktan": "Ja", "source": "https://www.okq8.se/pa-stationen/bensinstationer/eskilstuna-vasterg/", "distance": 0}, {"station": "OKQ8", "city": "Surahammar,", "short_address": "Enb\u00e4rsv\u00e4gen", "formatted_address": "Enb\u00e4rsv\u00e4gen 2, 735 37 Surahammar, Sweden", "position": {"lat": 59.6992354, "lng": 16.2470563}, "place_id": "ChIJ3_Hox9t7XkYR77DGxDuxGgQ", "oktan": "Ja", "source": "https://www.okq8.se/pa-stationen/bensinstationer/surahammar-enbarsvagen/", "distance": 0}, {"station": "OKQ8", "city": "Kristianstad,", "short_address": "Karlsgatan", "formatted_address": "Karlsgatan 11, 291 59 Kristianstad, Sweden", "position": {"lat": 56.0221068, "lng": 14.1429181}, "place_id": "ChIJj28uLlkDVEYRwweKoxRCxpk", "oktan": "Ja", "source": "https://www.okq8.se/pa-stationen/bensinstationer/kristianstad-langebrogatan/", "distance": 0}, {"station": "OKQ8", "city": "Esl\u00f6v,", "short_address": "Fallsk\u00e4rmsgatan", "formatted_address": "Fallsk\u00e4rmsgatan 1, 241 38 Esl\u00f6v, Sweden", "position": {"lat": 55.8431264, "lng": 13.3315254}, "place_id": "ChIJdTR4BTLrU0YRlA1fz5k0BIg", "oktan": "Ja", "source": "https://www.okq8.se/pa-stationen/bensinstationer/eslov-fallskarmsgatan/", "distance": 0}, {"station": "OKQ8", "city": "Oskarshamn,", "short_address": "Idrottsv\u00e4gen", "formatted_address": "Idrottsv\u00e4gen 1, 572 31 Oskarshamn, Sweden", "position": {"lat": 57.2638743, "lng": 16.4389604}, "place_id": "ChIJA2yaGaT1V0YR0DWdWhprYW0", "oktan": "Ja", "source": "https://www.okq8.se/pa-stationen/bensinstationer/oskarshamn-idrottsvagen/", "distance": 0}, {"station": "OKQ8", "city": "Kristianstad,", "short_address": "Blekingev\u00e4gen", "formatted_address": "Blekingev\u00e4gen 107, 291 50 Kristianstad, Sweden", "position": {"lat": 56.0284826, "lng": 14.2109218}, "place_id": "ChIJW0fDMpQcVEYR4_csseVd_aE", "oktan": "Ja", "source": "https://www.okq8.se/pa-stationen/bensinstationer/kristianstad-blekingev-tanka/", "distance": 0}, {"station": "OKQ8", "city": "L\u00f6ddek\u00f6pinge,", "short_address": "Transportv\u00e4gen", "formatted_address": "Transportv\u00e4gen 22, 246 42 L\u00f6ddek\u00f6pinge, Sweden", "position": {"lat": 55.7738857, "lng": 12.9985902}, "place_id": "ChIJBU2awi26U0YRCLXzBtQ4kLA", "oktan": "Ja", "source": "https://www.okq8.se/pa-stationen/bensinstationer/loddekopinge/", "distance": 0}, {"station": "OKQ8", "city": "H\u00f6rby,", "short_address": "Slagtoftav\u00e4gen", "formatted_address": "Slagtoftav\u00e4gen 60, 242 35 H\u00f6rby, Sweden", "position": {"lat": 55.861143, "lng": 13.6640968}, "place_id": "ChIJLzLat4nzU0YRmfsy8zLorQg", "oktan": "Ja", "source": "https://www.okq8.se/pa-stationen/bensinstationer/horby-slagtofta-tanka/", "distance": 0}, {"station": "OKQ8", "city": "Nybro,", "formatted_address": "SERVICEGATAN 1, 382 45 Nybro, Sweden", "position": {"lat": 56.7433798, "lng": 15.8938498}, "place_id": "ChIJ8VzVmMG2V0YRiX5uxKGquBM", "oktan": "Ja", "source": "https://www.okq8.se/pa-stationen/bensinstationer/nybro-servicegatan-tanka/", "distance": 0}, {"station": "OKQ8", "city": "Nybro,", "short_address": "Skruvens V\u00e4g", "formatted_address": "SKRUVENS V\u00c4G 2, 382 45 Nybro, Sweden", "position": {"lat": 56.7355341, "lng": 15.891623}, "place_id": "ChIJ4W5c9Lm2V0YR7PCxWJhyjWU", "oktan": "Ja", "source": "https://www.okq8.se/pa-stationen/bensinstationer/nybro-skruvens-vag/", "distance": 0}, {"station": "OKQ8", "city": "Asarum,", "short_address": "Korpadalsv\u00e4gen", "formatted_address": "Korpadalsv\u00e4gen 2, 374 51 Asarum, Sweden", "position": {"lat": 56.1943054, "lng": 14.8437896}, "place_id": "ChIJISfBnE-FVkYREXgrt_gNbnw", "oktan": "Ja", "source": "https://www.okq8.se/pa-stationen/bensinstationer/asarum-karlshamn-tanka/", "distance": 0}, {"station": "OKQ8", "city": "V\u00e4ster\u00e5s,", "short_address": "Djuphamnsv\u00e4gen", "formatted_address": "Djuphamnsv\u00e4gen 3, 724 65 V\u00e4ster\u00e5s, Sweden", "position": {"lat": 59.6005961, "lng": 16.5222156}, "place_id": "ChIJ-YEgmm5hXkYRvc_8YrgMGek", "oktan": "Ja", "source": "https://www.okq8.se/pa-stationen/bensinstationer/vasteras-djuphamnsvagen/", "distance": 0}, {"station": "OKQ8", "city": "Nyk\u00f6ping,", "short_address": "Gustavsbergsstigen", "formatted_address": "Gustavsbergsstigen 2, 611 65 Nyk\u00f6ping, Sweden", "position": {"lat": 58.76852409999999, "lng": 17.0252404}, "place_id": "ChIJt8vgEZstX0YR5Ly_V-PBTXc", "oktan": "Ja", "source": "https://www.okq8.se/pa-stationen/bensinstationer/nykoping-gustavsbergsstigen/", "distance": 0}, {"station": "OKQ8", "city": "V\u00e4ster\u00e5s,", "short_address": "Kopparbergsv\u00e4gen", "formatted_address": "Kopparbergsv\u00e4gen 47, 722 19 V\u00e4ster\u00e5s, Sweden", "position": {"lat": 59.6189364, "lng": 16.554719}, "place_id": "ChIJsxrfJzdhXkYRmN033B3w-Ws", "oktan": "Ja", "source": "https://www.okq8.se/pa-stationen/bensinstationer/vasteras-kopparbergsvagen/", "distance": 0}, {"station": "OKQ8", "city": "V\u00e4ster\u00e5s,", "short_address": "Norrleden", "formatted_address": "Norrleden 23, 722 23 V\u00e4ster\u00e5s, Sweden", "position": {"lat": 59.6362087, "lng": 16.5456605}, "place_id": "ChIJk5-qarBmXkYRNHikGxERyJU", "oktan": "Ja", "source": "https://www.okq8.se/pa-stationen/bensinstationer/vasteras-grytarondellen/", "distance": 0}, {"station": "OKQ8", "city": "V\u00e4ster\u00e5s,", "short_address": "Kaserngatan", "formatted_address": "Kaserngatan 2, 723 47 V\u00e4ster\u00e5s, Sweden", "position": {"lat": 59.6081953, "lng": 16.573299}, "place_id": "ChIJ_Z6r1iZhXkYRw3zKsGPA3kc", "oktan": "Ja", "source": "https://www.okq8.se/pa-stationen/bensinstationer/vasteras-viksang-tanka/", "distance": 0}, {"station": "OKQ8", "city": "S\u00f6lvesborg,", "short_address": "K\u00e4mpasl\u00e4ttsv\u00e4gen", "formatted_address": "K\u00e4mpasl\u00e4ttsv\u00e4gen 1, 294 33 S\u00f6lvesborg, Sweden", "position": {"lat": 56.0558774, "lng": 14.5671681}, "place_id": "ChIJG8Y6-54gVEYRyzpo-2Z1biA", "oktan": "Ja", "source": "https://www.okq8.se/pa-stationen/bensinstationer/solvesborg-kampaslatt-tanka/", "distance": 0}, {"station": "OKQ8", "city": "V\u00e4ster\u00e5s,", "short_address": "Str\u00f6mledningsgatan", "formatted_address": "Str\u00f6mledningsgatan 11, 721 37 V\u00e4ster\u00e5s, Sweden", "position": {"lat": 59.64177549999999, "lng": 16.5663155}, "place_id": "ChIJlSlbAsdmXkYRCofOujK_zCw", "oktan": "Ja", "source": "https://www.okq8.se/pa-stationen/bensinstationer/vasteras-stromledn-g-tanka/", "distance": 0}, {"station": "OKQ8", "city": "V\u00e4ster\u00e5s,", "short_address": "Norrleden", "formatted_address": "Norrleden 2B, 723 39 V\u00e4ster\u00e5s, Sweden", "position": {"lat": 59.6324482, "lng": 16.5814733}, "place_id": "ChIJDcqOD9FmXkYRRuT7IfbCYTU", "oktan": "Ja", "source": "https://www.okq8.se/pa-stationen/bensinstationer/vasteras-norrleden/", "distance": 0}, {"station": "OKQ8", "city": "Oxel\u00f6sund,", "short_address": "Styrmansgatan", "formatted_address": "Styrmansgatan 4, 613 31 Oxel\u00f6sund, Sweden", "position": {"lat": 58.66821779999999, "lng": 17.1066683}, "place_id": "ChIJsTWrFpLMWEYRBMhVRJKTKyg", "oktan": "Ja", "source": "https://www.okq8.se/pa-stationen/bensinstationer/oxelosund-styrmansgatan/", "distance": 0}, {"station": "OKQ8", "city": "Lund,", "short_address": "Kung Oscars V\u00e4g", "formatted_address": "Kung Oscars v\u00e4g 14, 221 00 Lund, Sweden", "position": {"lat": 55.7115976, "lng": 13.1808558}, "place_id": "ChIJMdAOOdaXU0YRYCdT_UxR9Qw", "oktan": "Ja", "source": "https://www.okq8.se/pa-stationen/bensinstationer/lund-kung-oscars-vag/", "distance": 0}, {"station": "OKQ8", "city": "M\u00f6nster\u00e5s,", "short_address": "Storgatan", "formatted_address": "Storgatan 90, 383 37 M\u00f6nster\u00e5s, Sweden", "position": {"lat": 57.0504766, "lng": 16.440117}, "place_id": "ChIJPQajVf3uV0YRkixMssdTSBA", "oktan": "Ja", "source": "https://www.okq8.se/pa-stationen/bensinstationer/monsteras-storgatan/", "distance": 0}, {"station": "OKQ8", "city": "\u00c5hus,", "short_address": "Stormgatan", "formatted_address": "Stormgatan 11, 296 32 \u00c5hus, Sweden", "position": {"lat": 55.9326485, "lng": 14.2912413}, "place_id": "ChIJZZOly-oZVEYR1nji86EZuYk", "oktan": "Ja", "source": "https://www.okq8.se/pa-stationen/bensinstationer/ahus-stormgatan/", "distance": 0}, {"station": "OKQ8", "city": "S\u00f6dra Sandby,", "short_address": "Lundav\u00e4gen", "formatted_address": "Lundav\u00e4gen, S\u00f6dra Sandby, Sweden", "position": {"lat": 55.7177006, "lng": 13.3293869}, "place_id": "EiJMdW5kYXbDpGdlbiwgU8O2ZHJhIFNhbmRieSwgU3dlZGVuIi4qLAoUChIJefZPWzKRU0YRqZfzyU7alQESFAoSCTFjM0ABjlNGEVF4fi8Zw0M0", "oktan": "Ja", "source": "https://www.okq8.se/pa-stationen/bensinstationer/sodra-sandby-lundavagen/", "distance": 0}, {"station": "OKQ8", "city": "Djur\u00e5s,", "short_address": "S\u00f6dra Industriv\u00e4gen", "formatted_address": "S\u00f6dra Industriv\u00e4gen 2, 785 61 Gagnef, Sweden", "position": {"lat": 60.5605723, "lng": 15.1345827}, "place_id": "ChIJ7yGRDqeGZ0YReOZz3XSfycI", "oktan": "Ja", "source": "https://www.okq8.se/pa-stationen/bensinstationer/djuras-sodra-industrivagen/", "distance": 0}, {"station": "OKQ8", "city": "Lund,", "short_address": "Porfyrv\u00e4gen", "formatted_address": "Porfyrv\u00e4gen, Lund, Sweden", "position": {"lat": 55.6914667, "lng": 13.2190849}, "place_id": "ChIJZfs-U72XU0YROglZVK8YIXo", "oktan": "Ja", "source": "https://www.okq8.se/pa-stationen/bensinstationer/lund-porfyrvagen-tanka/", "distance": 0}, {"station": "OKQ8", "city": "Borl\u00e4nge,", "short_address": "B\u00e4ckelundsgatan", "formatted_address": "B\u00e4ckelundsgatan 2, 781 70 Borl\u00e4nge, Sweden", "position": {"lat": 60.4785315, "lng": 15.4127022}, "place_id": "ChIJy-PoCGN-Z0YRrXnQK5QOafE", "oktan": "Ja", "source": "https://www.okq8.se/pa-stationen/bensinstationer/borlange-norra-backa/", "distance": 0}, {"station": "OKQ8", "city": "Borl\u00e4nge,", "short_address": "Smedjebacksv\u00e4gen", "formatted_address": "Smedjebacksv\u00e4gen, Borl\u00e4nge, Sweden", "position": {"lat": 60.4277448, "lng": 15.4513818}, "place_id": "EiRTbWVkamViYWNrc3bDpGdlbiwgQm9ybMOkbmdlLCBTd2VkZW4iLiosChQKEgm34q5-kH1nRhFd2DSpgPoS0xIUChIJiRpYsSt8Z0YRmUwWPuFgPv4", "oktan": "Ja", "source": "https://www.okq8.se/pa-stationen/bensinstationer/borlange-smedjebacksv-tanka/", "distance": 0}, {"station": "OKQ8", "city": "Borl\u00e4nge,", "short_address": "Bygatan", "formatted_address": "Bygatan 33, 784 34 Borl\u00e4nge, Sweden", "position": {"lat": 60.4786251, "lng": 15.437247}, "place_id": "ChIJrY_h8H9-Z0YRTlpOrQ-fqjs", "oktan": "Ja", "source": "https://www.okq8.se/pa-stationen/bensinstationer/borlange-bygatan/", "distance": 0}, {"station": "OKQ8", "city": "Ronneby,", "short_address": "S\u00f6rbydalsv\u00e4gen", "formatted_address": "S\u00f6rbydalsv\u00e4gen 14, 372 91 Ronneby, Sweden", "position": {"lat": 56.23208289999999, "lng": 15.2592118}, "place_id": "ChIJ3TEI5PFjVkYRe9lIbOQiST0", "oktan": "Ja", "source": "https://www.okq8.se/pa-stationen/bensinstationer/ronneby/", "distance": 0}, {"station": "OKQ8", "city": "Staffanstorp,", "short_address": "Maskinv\u00e4gen", "formatted_address": "Maskinv\u00e4gen 2, 245 34 Staffanstorp, Sweden", "position": {"lat": 55.6563484, "lng": 13.2219496}, "place_id": "ChIJ22rLEs2ZU0YRmhge3ymiLho", "oktan": "Ja", "source": "https://www.okq8.se/pa-stationen/bensinstationer/staffanstorp/", "distance": 0}, {"station": "OKQ8", "city": "Arl\u00f6v,", "short_address": "Lundav\u00e4gen", "formatted_address": "Lundav\u00e4gen 9, 232 31 Arl\u00f6v, Sweden", "position": {"lat": 55.6299625, "lng": 13.0693671}, "place_id": "ChIJNdARTq2jU0YRGAAGNBufAGo", "oktan": "Ja", "source": "https://www.okq8.se/pa-stationen/bensinstationer/arlov-lundavagen/", "distance": 0}, {"station": "OKQ8", "city": "Str\u00e4ngn\u00e4s,", "short_address": "Kvartsgatan", "formatted_address": "Kvartsgatan 4, 645 47 Str\u00e4ngn\u00e4s, Sweden", "position": {"lat": 59.32811710000001, "lng": 17.0171661}, "place_id": "ChIJqXiUPfj8XkYRExY--64tRSo", "oktan": "Ja", "source": "https://www.okq8.se/pa-stationen/bensinstationer/strangnas-kalkstensg-tanka/", "distance": 0}, {"station": "OKQ8", "city": "Malm\u00f6,", "short_address": "V\u00e4stkustv\u00e4gen", "formatted_address": "V\u00e4stkustv\u00e4gen 19-21, 211 24 Malm\u00f6, Sweden", "position": {"lat": 55.6146695, "lng": 13.0320718}, "place_id": "ChIJ7WwMScKjU0YRHVk8nRE6e_0", "oktan": "Ja", "source": "https://www.okq8.se/pa-stationen/bensinstationer/malmo-vastkustv/", "distance": 0}, {"station": "OKQ8", "city": "Malm\u00f6,", "short_address": "Vattenverksv\u00e4gen", "formatted_address": "Vattenverksv\u00e4gen 60, 212 43 Malm\u00f6, Sweden", "position": {"lat": 55.61020440000001, "lng": 13.0617675}, "place_id": "ChIJ_YpN3zKiU0YR1eVgaxpKXRg", "oktan": "Ja", "source": "https://www.okq8.se/pa-stationen/bensinstationer/malmo-vattenverksvagen/", "distance": 0}, {"station": "OKQ8", "city": "Avesta,", "short_address": "Dalav\u00e4gen", "formatted_address": "Dalav\u00e4gen 5, 774 41 Avesta, Sweden", "position": {"lat": 60.1445452, "lng": 16.1790307}, "place_id": "ChIJRYRoZbHkXUYRFCeKu5tfe2w", "oktan": "Ja", "source": "https://www.okq8.se/pa-stationen/bensinstationer/avesta-dalavagen/", "distance": 0}, {"station": "OKQ8", "city": "Arl\u00f6v,", "short_address": "Vassv\u00e4gen", "formatted_address": "Vassv\u00e4gen 20-26, 232 91 Arl\u00f6v, Sweden", "position": {"lat": 55.6133841, "lng": 13.1030669}, "place_id": "ChIJD9CvthSiU0YRhkZW8NNb4eg", "oktan": "Ja", "source": "https://www.okq8.se/pa-stationen/bensinstationer/stora-bernstorp/", "distance": 0}, {"station": "OKQ8", "city": "Str\u00e4ngn\u00e4s,", "short_address": "Mark\u00f6rv\u00e4gen", "formatted_address": "Mark\u00f6rv\u00e4gen 1, 645 42 Str\u00e4ngn\u00e4s, Sweden", "position": {"lat": 59.36690770000001, "lng": 17.023099}, "place_id": "ChIJt9UzhCL8XkYRM7JQgmMwwjM", "oktan": "Ja", "source": "https://www.okq8.se/pa-stationen/bensinstationer/strangnas-markorvagen/", "distance": 0}, {"station": "OKQ8", "city": "Avesta,", "short_address": "Bergsn\u00e4sgatan", "formatted_address": "Bergsn\u00e4sgatan 7, 774 41 Avesta, Sweden", "position": {"lat": 60.1407968, "lng": 16.1951999}, "place_id": "ChIJ4w9sI6nkXUYRVsVGUkUF8Vc", "oktan": "Ja", "source": "https://www.okq8.se/pa-stationen/bensinstationer/avesta-bergsnasgatan/", "distance": 0}, {"station": "OKQ8", "city": "Krylbo,", "short_address": "Folkaregatan", "formatted_address": "Folkaregatan 50, 775 70 Krylbo, Sweden", "position": {"lat": 60.1195414, "lng": 16.2417427}, "place_id": "ChIJubKO-D3jXUYR6RFsDAkHaqU", "oktan": "Ja", "source": "https://www.okq8.se/pa-stationen/bensinstationer/krylbo-folkaregatan/", "distance": 0}, {"station": "OKQ8", "city": "Hedemora,", "short_address": "Gussarvsgatan", "formatted_address": "Gussarvsgatan 27, 776 33 Hedemora, Sweden", "position": {"lat": 60.2834114, "lng": 15.9917756}, "place_id": "ChIJHVwqxLr2XUYRzXZGaYTScYY", "oktan": "Ja", "source": "https://www.okq8.se/pa-stationen/bensinstationer/hedemora-gussarvsg/", "distance": 0}, {"station": "OKQ8", "city": "Hedemora,", "short_address": "Gussarvsgatan", "formatted_address": "Gussarvsgatan 31, 776 30 Hedemora, Sweden", "position": {"lat": 60.28379029999999, "lng": 15.9919068}, "place_id": "ChIJQazuxLr2XUYR2ZqM0-UcUws", "oktan": "Ja", "source": "https://www.okq8.se/pa-stationen/bensinstationer/hedemora-gussarvsgat-tanka/", "distance": 0}, {"station": "OKQ8", "city": "Malm\u00f6,", "short_address": "Batterigatan", "formatted_address": "Batterigatan 2, 212 41 Malm\u00f6, Sweden", "position": {"lat": 55.5950023, "lng": 13.0999155}, "place_id": "ChIJeVxC4xyiU0YR3aJz6YjG-FQ", "oktan": "Ja", "source": "https://www.okq8.se/pa-stationen/bensinstationer/malmo-batterigatan-toftanas/", "distance": 0}, {"station": "OKQ8", "city": "Malm\u00f6,", "short_address": "Svansj\u00f6gatan", "formatted_address": "Svansj\u00f6gatan 2, 217 66 Malm\u00f6, Sweden", "position": {"lat": 55.5799592, "lng": 12.9757682}, "place_id": "ChIJT0CQIMumU0YRLFwKrBYf5QQ", "oktan": "Ja", "source": "https://www.okq8.se/pa-stationen/bensinstationer/malmo-svansjogatan/", "distance": 0}, {"station": "OKQ8", "city": "Malm\u00f6,", "short_address": "Blekingsborgsgatan", "formatted_address": "Blekingsborgsgatan 2, 214 63 Malm\u00f6, Sweden", "position": {"lat": 55.5784362, "lng": 13.004527}, "place_id": "ChIJq9obaz-hU0YRGCTOYuQVH7I", "oktan": "Ja", "source": "https://www.okq8.se/pa-stationen/bensinstationer/malmo-mobilia/", "distance": 0}, {"station": "OKQ8", "city": "Veber\u00f6d,", "short_address": "Truckv\u00e4gen", "formatted_address": "Truckv\u00e4gen, 247 64 Veber\u00f6d, Sweden", "position": {"lat": 55.63923029999999, "lng": 13.5023904}, "place_id": "Eh1UcnVja3bDpGdlbiwgVmViZXLDtmQsIFN3ZWRlbiIuKiwKFAoSCXfxMZJij1NGEYl0Ljb_LBT8EhQKEgk1QHdJhoVTRhHwOECjepABCg", "oktan": "Ja", "source": "https://www.okq8.se/pa-stationen/bensinstationer/veberod-truckvagen/", "distance": 0}, {"station": "OKQ8", "city": "Leksand,", "short_address": "Limsj\u00f6\u00e4nget", "formatted_address": "LIMSJ\u00d6\u00c4NGET 6, 793 31 Leksand, Sweden", "position": {"lat": 60.73754950000001, "lng": 15.0048501}, "place_id": "ChIJezDwABqRZ0YR0ypCtyumCl0", "oktan": "Ja", "source": "https://www.okq8.se/pa-stationen/bensinstationer/leksand-limsjoanget-tanka/", "distance": 0}, {"station": "OKQ8", "city": "Malm\u00f6,", "short_address": "Agnesfridsv\u00e4gen", "formatted_address": "Agnesfridsv\u00e4gen 119, 213 75 Malm\u00f6, Sweden", "position": {"lat": 55.5713663, "lng": 13.0555659}, "place_id": "ChIJdUdz4qKhU0YRa9vEJ3xRqm8", "oktan": "Ja", "source": "https://www.okq8.se/pa-stationen/bensinstationer/malmo-agnesfridsv-tanka/", "distance": 0}, {"station": "OKQ8", "city": "Sala,", "short_address": "Berggatan", "formatted_address": "Berggatan 13, 733 35 Sala, Sweden", "position": {"lat": 59.9226565, "lng": 16.5876807}, "place_id": "ChIJVx3mabgSXkYReX_DWtrx4Sw", "oktan": "Ja", "source": "https://www.okq8.se/pa-stationen/bensinstationer/sala-berggatan-tanka/", "distance": 0}, {"station": "OKQ8", "city": "Sala,", "short_address": "Gymnasiegatan", "formatted_address": "Gymnasiegatan 2, 733 40 Sala, Sweden", "position": {"lat": 59.9113735, "lng": 16.6183361}, "place_id": "ChIJgfV7fdYSXkYRccLdfNj8tog", "oktan": "Ja", "source": "https://www.okq8.se/pa-stationen/bensinstationer/sala-gymnasiegatan/", "distance": 0}, {"station": "OKQ8", "city": "Sala,", "short_address": "Uppsalav\u00e4gen", "formatted_address": "Uppsalav\u00e4gen 2, 733 39 Sala, Sweden", "position": {"lat": 59.916042, "lng": 16.6213029}, "place_id": "EiRVcHBzYWxhdsOkZ2VuIDIsIDczMyAzOSBTYWxhLCBTd2VkZW4iGhIYChQKEgkr0UZ_1xJeRhF8ZTNxUQc1uhAC", "oktan": "Ja", "source": "https://www.okq8.se/pa-stationen/bensinstationer/sala-uppsalavagen/", "distance": 0}, {"station": "OKQ8", "city": "Oxie,", "short_address": "Lockarpsv\u00e4gen", "formatted_address": "Lockarpsv\u00e4gen 4, 238 41 Oxie, Sweden", "position": {"lat": 55.5490894, "lng": 13.0334496}, "place_id": "ChIJCcn80VWgU0YR1vpFYbnm0H4", "oktan": "Ja", "source": "https://www.okq8.se/pa-stationen/bensinstationer/malmo-lockarp/", "distance": 0}, {"station": "OKQ8", "city": "Kalmar,", "short_address": "Tr\u00e5ngsundsv\u00e4gen", "formatted_address": "Tr\u00e5ngsundsv\u00e4gen 20, 393 56 Kalmar, Sweden", "position": {"lat": 56.6888274, "lng": 16.3190499}, "place_id": "ChIJ8627ncDRV0YR5J_x9Es_iBc", "oktan": "Ja", "source": "https://www.okq8.se/pa-stationen/bensinstationer/kalmar-trangsundsv-tanka/", "distance": 0}, {"station": "OKQ8", "city": "Br\u00f6sarp,", "short_address": "Albov\u00e4gen", "formatted_address": "Albov\u00e4gen 9, 273 50 Br\u00f6sarp, Sweden", "position": {"lat": 55.726597, "lng": 14.0995086}, "place_id": "ChIJ_aNgtOlsVEYRG3HC2sqcTxg", "oktan": "Ja", "source": "https://www.okq8.se/pa-stationen/bensinstationer/brosarp-albovagen/", "distance": 0}, {"station": "OKQ8", "city": "Tystberga,", "short_address": "Sillekrog", "formatted_address": "SILLEKROG 4, 611 99 Tystberga, Sweden", "position": {"lat": 58.9165991, "lng": 17.36884}, "place_id": "ChIJ50R8RRA5X0YRMi3SAC8bLAY", "oktan": "Ja", "source": "https://www.okq8.se/pa-stationen/bensinstationer/sillekrog-norr/", "distance": 0}, {"station": "OKQ8", "city": "Tystberga,", "short_address": "Sillekrog", "formatted_address": "SILLEKROG 4, 611 99 Tystberga, Sweden", "position": {"lat": 58.9165991, "lng": 17.36884}, "place_id": "ChIJ50R8RRA5X0YRMi3SAC8bLAY", "oktan": "Ja", "source": "https://www.okq8.se/pa-stationen/bensinstationer/sillekrog-soder/", "distance": 0}, {"station": "OKQ8", "city": "Kalmar,", "short_address": "\u00d6landsleden", "formatted_address": "\u00d6landsleden 7, 393 56 Kalmar, Sweden", "position": {"lat": 56.6836347, "lng": 16.3229595}, "place_id": "ChIJXcAvkpXRV0YRUOgDj3idw9M", "oktan": "Ja", "source": "https://www.okq8.se/pa-stationen/bensinstationer/kalmar-olandsleden/", "distance": 0}, {"station": "OKQ8", "city": "S\u00e4len,", "short_address": "S\u00e4lenv\u00e4gen", "formatted_address": "S\u00e4lenv\u00e4gen 21, 780 67 S\u00e4len, Sweden", "position": {"lat": 61.156592, "lng": 13.2662295}, "place_id": "ChIJTYTRzcdOaEYRh5rAGQoDw2g", "oktan": "Ja", "source": "https://www.okq8.se/pa-stationen/bensinstationer/salen-salenvagen/", "distance": 0}, {"station": "OKQ8", "city": "N\u00e4ttraby,", "short_address": "Idrottsv\u00e4gen", "formatted_address": "Idrottsv\u00e4gen 2, 370 24 N\u00e4ttraby, Sweden", "position": {"lat": 56.2065985, "lng": 15.5274177}, "place_id": "ChIJvYrMuLFuVkYRSxz1f1LmE3w", "oktan": "Ja", "source": "https://www.okq8.se/pa-stationen/bensinstationer/nattraby-idrottsvagen/", "distance": 0}, {"station": "OKQ8", "city": "Kalmar,", "short_address": "Borgm\u00e4staregatan", "formatted_address": "Borgm\u00e4staregatan 15, 392 35 Kalmar, Sweden", "position": {"lat": 56.673509, "lng": 16.3505591}, "place_id": "ChIJ3weWYHbRV0YRHMq3TXBc0pk", "oktan": "Ja", "source": "https://www.okq8.se/pa-stationen/bensinstationer/kalmar-borgmastaregatan/", "distance": 0}, {"station": "OKQ8", "city": "Svedala,", "short_address": "Norra Tv\u00e4rgatan", "formatted_address": "Norra Tv\u00e4rgatan 24, 233 35 Svedala, Sweden", "position": {"lat": 55.5154891, "lng": 13.2347835}, "place_id": "ChIJExJkn8SdU0YRbcWOn8V-gL0", "oktan": "Ja", "source": "https://www.okq8.se/pa-stationen/bensinstationer/svedala-ntvargatan/", "distance": 0}, {"station": "OKQ8", "city": "Borgholm,", "short_address": "Storgatan", "formatted_address": "Storgatan 77, 387 34 Borgholm, Sweden", "position": {"lat": 56.8738012, "lng": 16.6678349}, "place_id": "ChIJQ09Lw-vfV0YRT6NGfZUhLhU", "oktan": "Ja", "source": "https://www.okq8.se/pa-stationen/bensinstationer/borgholm-storgatan/", "distance": 0}, {"station": "OKQ8", "city": "Karlskrona,", "short_address": "Gullbernav\u00e4gen", "formatted_address": "Gullbernav\u00e4gen 22, 371 47 Karlskrona, Sweden", "position": {"lat": 56.2025947, "lng": 15.6369058}, "place_id": "ChIJz6I012JrVkYRu_6Zug39bOI", "oktan": "Ja", "source": "https://www.okq8.se/pa-stationen/bensinstationer/karlskrona-gullbernav-tanka/", "distance": 0}, {"station": "OKQ8", "city": "Vellinge,", "short_address": "B\u00f6rjesgatan", "formatted_address": "B\u00f6rjesgatan 1, 235 31 Vellinge, Sweden", "position": {"lat": 55.47362450000001, "lng": 13.02018}, "place_id": "ChIJ6V7v9eYKU0YRTwW_3i31DLw", "oktan": "Ja", "source": "https://www.okq8.se/pa-stationen/bensinstationer/vellinge-borjesgatan/", "distance": 0}, {"station": "OKQ8", "city": "Karlskrona,", "short_address": "Bl\u00e5portsgatan", "formatted_address": "Bl\u00e5portsgatan 19, 371 42 Karlskrona, Sweden", "position": {"lat": 56.17347239999999, "lng": 15.598754}, "place_id": "ChIJ6Zxwh1hsVkYR7lPPgKroi_g", "oktan": "Ja", "source": "https://www.okq8.se/pa-stationen/bensinstationer/karlskrona-blaport/", "distance": 0}, {"station": "OKQ8", "city": "Falun,", "short_address": "Korsn\u00e4sv\u00e4gen", "formatted_address": "Korsn\u00e4sv\u00e4gen 138, 791 43 Falun, Sweden", "position": {"lat": 60.5954516, "lng": 15.6861443}, "place_id": "ChIJyR-wHP9vZ0YRVipiyZABoSI", "oktan": "Ja", "source": "https://www.okq8.se/pa-stationen/bensinstationer/falun-korsnasvagen-tanka/", "distance": 0}, {"station": "OKQ8", "city": "Falun,", "short_address": "Tryckeriv\u00e4gen", "formatted_address": "Tryckeriv\u00e4gen 1, 791 44 Falun, Sweden", "position": {"lat": 60.594846, "lng": 15.6931218}, "place_id": "ChIJ2zZ0HflvZ0YRD_5xFhKmiSw", "oktan": "Ja", "source": "https://www.okq8.se/pa-stationen/bensinstationer/falun-tryckerivagen/", "distance": 0}, {"station": "OKQ8", "city": "Falun,", "short_address": "Kolonnv\u00e4gen", "formatted_address": "Kolonnv\u00e4gen 2, 791 31 Falun, Sweden", "position": {"lat": 60.60764760000001, "lng": 15.6630657}, "place_id": "ChIJ_WEEJhBwZ0YRxEEQfifR2a4", "oktan": "Ja", "source": "https://www.okq8.se/pa-stationen/bensinstationer/falun-kolonnvagen-tanka/", "distance": 0}, {"station": "OKQ8", "city": "Enk\u00f6ping,", "short_address": "Ges\u00e4llgatan", "formatted_address": "Ges\u00e4llgatan 1, 745 39 Enk\u00f6ping, Sweden", "position": {"lat": 59.64767579999999, "lng": 17.0831888}, "place_id": "ChIJ09zpMylQXkYRRopzAJFsPqQ", "oktan": "Ja", "source": "https://www.okq8.se/pa-stationen/bensinstationer/enkoping-gesallgatan/", "distance": 0}, {"station": "OKQ8", "city": "Enk\u00f6ping,", "short_address": "Grusgatan", "formatted_address": "Grusgatan 18, 745 37 Enk\u00f6ping, Sweden", "position": {"lat": 59.6578524, "lng": 17.0764277}, "place_id": "EiZHcnVzZ2F0YW4gMTgsIDc0NSAzNyBFbmvDtnBpbmcsIFN3ZWRlbiIaEhgKFAoSCUcNoBDZT15GEfC70w3_DH7CEBI", "oktan": "Ja", "source": "https://www.okq8.se/pa-stationen/bensinstationer/enkoping-grusgatan-tanka/", "distance": 0}, {"station": "OKQ8", "city": "Bjurs\u00e5s,", "short_address": "Storv\u00e4gen", "formatted_address": "Storv\u00e4gen 21, 790 21 Bjurs\u00e5s, Sweden", "position": {"lat": 60.725241, "lng": 15.446963}, "place_id": "ChIJ-4CVrPt1Z0YRDkKtp-4M9FE", "oktan": "Ja", "source": "https://www.okq8.se/pa-stationen/bensinstationer/bjursas-storvagen/", "distance": 0}, {"station": "OKQ8", "city": "F\u00e4rjestaden,", "short_address": "T\u00f6rnbottenv\u00e4gen", "formatted_address": "T\u00f6rnbottenv\u00e4gen 2, 386 90 F\u00e4rjestaden, Sweden", "position": {"lat": 56.6823804, "lng": 16.5226178}, "place_id": "ChIJP2ax47LXV0YRV2QtgY1ACIs", "oktan": "Ja", "source": "https://www.okq8.se/pa-stationen/bensinstationer/farjestaden-algutsrum/", "distance": 0}, {"station": "OKQ8", "city": "Mora,", "short_address": "Vasagatan", "formatted_address": "Vasagatan 1, 792 32 Mora, Sweden", "position": {"lat": 61.00901979999999, "lng": 14.5669004}, "place_id": "ChIJVWfIuGHbZ0YR_2lXM67-AGE", "oktan": "Ja", "source": "https://www.okq8.se/pa-stationen/bensinstationer/mora-vasagatan/", "distance": 0}, {"station": "OKQ8", "city": "Mora,", "short_address": "Engelbrekts V\u00e4g", "formatted_address": "Engelbrekts v\u00e4g 3, 792 32 Mora, Sweden", "position": {"lat": 61.01006339999999, "lng": 14.5636893}, "place_id": "ChIJ967YJ2LbZ0YRhi3lnpzAlKA", "oktan": "Ja", "source": "https://www.okq8.se/pa-stationen/bensinstationer/mora-broakern-tanka/", "distance": 0}, {"station": "OKQ8", "city": "R\u00e4ttvik,", "short_address": "Faluv\u00e4gen", "formatted_address": "Faluv\u00e4gen 117, 795 36 R\u00e4ttvik, Sweden", "position": {"lat": 60.86098459999999, "lng": 15.1039101}, "place_id": "ChIJWWMof3i9Z0YR3PFIKGM2Jxc", "oktan": "Ja", "source": "https://www.okq8.se/pa-stationen/bensinstationer/rattvik/", "distance": 0}, {"station": "OKQ8", "city": "Nykvarn,", "short_address": "Gamla Str\u00e4ngn\u00e4sv\u00e4gen", "formatted_address": "Gamla Str\u00e4ngn\u00e4sv\u00e4gen 509, 155 91 Nykvarn, Sweden", "position": {"lat": 59.1909441, "lng": 17.4604196}, "place_id": "ChIJ03k3SLwRX0YRu487V-X1eaE", "oktan": "Ja", "source": "https://www.okq8.se/pa-stationen/bensinstationer/nykvarn/", "distance": 0}, {"station": "OKQ8", "city": "H\u00f6llviken,", "short_address": "Stenbocks V\u00e4g", "formatted_address": "Stenbocks v\u00e4g 1, 236 51 H\u00f6llviken, Sweden", "position": {"lat": 55.4251231, "lng": 12.9592396}, "place_id": "ChIJc13vyHgMU0YRJ-wvJB84NK4", "oktan": "Ja", "source": "https://www.okq8.se/pa-stationen/bensinstationer/hollviken/", "distance": 0}, {"station": "OKQ8", "city": "Skurup,", "short_address": "Korrehusgatan", "formatted_address": "Korrehusgatan, 274 30 Skurup, Sweden", "position": {"lat": 55.4894233, "lng": 13.4872895}, "place_id": "Eh1Lb3JyZWh1c2dhdGFuLCBTa3VydXAsIFN3ZWRlbiIuKiwKFAoSCa19sv6OgVNGEWzDHUgRg-ucEhQKEglJxOPBv4FTRhEI8BT4m4sqmg", "oktan": "Ja", "source": "https://www.okq8.se/pa-stationen/bensinstationer/skurup/", "distance": 0}, {"station": "OKQ8", "city": "R\u00e4ttvik,", "short_address": "Riksv\u00e4gen", "formatted_address": "Riksv\u00e4gen 26, 795 32 R\u00e4ttvik, Sweden", "position": {"lat": 60.886653, "lng": 15.1136772}, "place_id": "ChIJO5Jdg6i9Z0YRv59aMRlDMik", "oktan": "Ja", "source": "https://www.okq8.se/pa-stationen/bensinstationer/rattvik-riksvagen/", "distance": 0}, {"station": "OKQ8", "city": "M\u00f6rbyl\u00e5nga,", "short_address": "K\u00f6pmangatan", "formatted_address": "K\u00f6pmangatan 28, 380 62 M\u00f6rbyl\u00e5nga, Sweden", "position": {"lat": 56.52532619999999, "lng": 16.3836193}, "place_id": "ChIJWW7COwUrVkYRARVFDDZDXA4", "oktan": "Ja", "source": "https://www.okq8.se/pa-stationen/bensinstationer/morbylanga-kopmangatan/", "distance": 0}, {"station": "OKQ8", "city": "J\u00e4mj\u00f6,", "short_address": "Riksv\u00e4gen", "formatted_address": "Riksv\u00e4gen 2, 373 00 J\u00e4mj\u00f6, Sweden", "position": {"lat": 56.1926295, "lng": 15.8385502}, "place_id": "ChIJHzF_vqMWVkYRwEXSu_0p7Pc", "oktan": "Ja", "source": "https://www.okq8.se/pa-stationen/bensinstationer/jamjo-riksvagen/", "distance": 0}, {"station": "OKQ8", "city": "J\u00e4rna,", "short_address": "Florav\u00e4gen", "formatted_address": "Florav\u00e4gen 1, 153 31 J\u00e4rna, Sweden", "position": {"lat": 59.087027, "lng": 17.5788414}, "place_id": "ChIJCZ5H17cUX0YRLF5bzyZQ-Rc", "oktan": "Ja", "source": "https://www.okq8.se/pa-stationen/bensinstationer/jarna-floravagen/", "distance": 0}, {"station": "OKQ8", "city": "Grillby,", "short_address": "Grillbyv\u00e4gen", "formatted_address": "Grillbyv\u00e4gen 27, 749 51 Grillby, Sweden", "position": {"lat": 59.6604124, "lng": 17.2414985}, "place_id": "ChIJkf2wFbxNXkYRblEuxvgz_WQ", "oktan": "Ja", "source": "https://www.okq8.se/pa-stationen/bensinstationer/grillby-grillbyvagen/", "distance": 0}, {"station": "OKQ8", "city": "Trelleborg,", "short_address": "Hedv\u00e4gen", "formatted_address": "Hedv\u00e4gen 451, 231 62 Trelleborg, Sweden", "position": {"lat": 55.3846285, "lng": 13.0857592}, "place_id": "ChIJYwHuM6dzU0YRcLxpN4C_Ti0", "oktan": "Ja", "source": "https://www.okq8.se/pa-stationen/bensinstationer/trelleborg/", "distance": 0}, {"station": "OKQ8", "city": "S\u00f6dert\u00e4lje,", "short_address": "Genetaleden", "formatted_address": "Genetaleden 4, 151 59 S\u00f6dert\u00e4lje, Sweden", "position": {"lat": 59.1860778, "lng": 17.5742435}, "place_id": "ChIJ50JFzmYSX0YRroxCckN9L7w", "oktan": "Ja", "source": "https://www.okq8.se/pa-stationen/bensinstationer/sodertalje-aut-genetaleden/", "distance": 0}, {"station": "OKQ8", "city": "S\u00f6dert\u00e4lje,", "short_address": "St\u00e5lhamrav\u00e4gen", "formatted_address": "St\u00e5lhamrav\u00e4gen 93, 151 47 S\u00f6dert\u00e4lje, Sweden", "position": {"lat": 59.1786694, "lng": 17.6155449}, "place_id": "ChIJOSlZHZUSX0YRDZxUe4sr1SY", "oktan": "Ja", "source": "https://www.okq8.se/pa-stationen/bensinstationer/sodertalje-stalhamravagen/", "distance": 0}, {"station": "OKQ8", "city": "S\u00f6dert\u00e4lje,", "short_address": "Bangatan", "formatted_address": "Bangatan 34, 151 32 S\u00f6dert\u00e4lje, Sweden", "position": {"lat": 59.1889295, "lng": 17.6285614}, "place_id": "ChIJS6kKg6ISX0YRmB0KHyMBAlE", "oktan": "Ja", "source": "https://www.okq8.se/pa-stationen/bensinstationer/sodertalje-bangatan/", "distance": 0}, {"station": "OKQ8", "city": "\u00c4lvdalen,", "short_address": "Dalgatan", "formatted_address": "Dalgatan 94, 796 30 \u00c4lvdalen, Sweden", "position": {"lat": 61.22854619999999, "lng": 14.0395159}, "place_id": "ChIJgdnz-upkaEYRw5VnsyhoN2s", "oktan": "Ja", "source": "https://www.okq8.se/pa-stationen/bensinstationer/alvdalen-dalgatan/", "distance": 0}, {"station": "OKQ8", "city": "Ystad,", "short_address": "Kristianstadsv\u00e4gen", "formatted_address": "Kristianstadsv\u00e4gen 38, 271 33 Ystad, Sweden", "position": {"lat": 55.436904, "lng": 13.825267}, "place_id": "ChIJC4Li0UN9VEYRTy0WAD1K6bE", "oktan": "Ja", "source": "https://www.okq8.se/pa-stationen/bensinstationer/ystad-kristianstadsvagen/", "distance": 0}, {"station": "OKQ8", "city": "Simrishamn,", "short_address": "Fabriksgatan", "formatted_address": "Fabriksgatan, 272 36 Simrishamn, Sweden", "position": {"lat": 55.54747589999999, "lng": 14.3384634}, "place_id": "EiBGYWJyaWtzZ2F0YW4sIFNpbXJpc2hhbW4sIFN3ZWRlbiIuKiwKFAoSCUUzGoWuRFRGEdQBxZBwC6iUEhQKEglPPhdtukRURhGIcQecaHEmcg", "oktan": "Ja", "source": "https://www.okq8.se/pa-stationen/bensinstationer/simrishamn-fabriksg-tanka/", "distance": 0}, {"station": "OKQ8", "city": "B\u00e5lsta,", "short_address": "Stockholmsv\u00e4gen", "formatted_address": "Stockholmsv\u00e4gen 36, 746 33 B\u00e5lsta, Sweden", "position": {"lat": 59.57432189999999, "lng": 17.5170147}, "place_id": "ChIJ65Yv2DmuX0YR80NC6sda6-M", "oktan": "Ja", "source": "https://www.okq8.se/pa-stationen/bensinstationer/balsta-stockholmsvagen-36/", "distance": 0}, {"station": "OKQ8", "city": "Sk\u00e5,", "short_address": "F\u00e4rentunav\u00e4gen", "formatted_address": "F\u00e4rentunav\u00e4gen 105, 179 75 Sk\u00e5, Sweden", "position": {"lat": 59.3231147, "lng": 17.7508976}, "place_id": "ChIJzSyoMigLX0YR-D_WaVfMc-Y", "oktan": "Ja", "source": "https://www.okq8.se/pa-stationen/bensinstationer/ska-svanhagen/", "distance": 0}, {"station": "OKQ8", "city": "Tumba,", "short_address": "D\u00e4ldv\u00e4gen", "formatted_address": "D\u00e4ldv\u00e4gen 1, 147 33 Tumba, Sweden", "position": {"lat": 59.1924683, "lng": 17.825256}, "place_id": "ChIJ6ziiMR9yX0YRwHFMZOO72Tg", "oktan": "Ja", "source": "https://www.okq8.se/pa-stationen/bensinstationer/tumba-daldvagen/", "distance": 0}, {"station": "OKQ8", "city": "Tumba,", "short_address": "Tumbav\u00e4gen", "formatted_address": "Tumbav\u00e4gen 1, 147 43 Tumba, Sweden", "position": {"lat": 59.21386329999999, "lng": 17.8286653}, "place_id": "ChIJZz7CcTJyX0YRXQWeth94zIg", "oktan": "Ja", "source": "https://www.okq8.se/pa-stationen/bensinstationer/tumba-tuna-tanka/", "distance": 0}, {"station": "OKQ8", "city": "Nyn\u00e4shamn,", "short_address": "Nyn\u00e4sv\u00e4gen", "formatted_address": "Nyn\u00e4sv\u00e4gen 50, 149 45 Nyn\u00e4shamn, Sweden", "position": {"lat": 58.9175748, "lng": 17.9396857}, "place_id": "ChIJWUnIrtJdX0YRYGuUthu4Tq4", "oktan": "Ja", "source": "https://www.okq8.se/pa-stationen/bensinstationer/nynashamn-nynasvagen/", "distance": 0}, {"station": "OKQ8", "city": "Eker\u00f6,", "short_address": "\u00c5kerstigen", "formatted_address": "\u00c5kerstigen 22, 178 34 Eker\u00f6, Sweden", "position": {"lat": 59.2862524, "lng": 17.799894}, "place_id": "ChIJfbVJ5JF0X0YR0EWcPQmRqYg", "oktan": "Ja", "source": "https://www.okq8.se/pa-stationen/bensinstationer/ekero-akerstigen/", "distance": 0}, {"station": "OKQ8", "city": "Norsborg,", "short_address": "Brunnav\u00e4gen", "formatted_address": "Brunnav\u00e4gen, 145 67 Botkyrka, Sweden", "position": {"lat": 59.2451555, "lng": 17.8353481}, "place_id": "ChIJITutautzX0YRs5YajMR44uI", "oktan": "Ja", "source": "https://www.okq8.se/pa-stationen/bensinstationer/norsborg-brunnavagen/", "distance": 0}, {"station": "OKQ8", "city": "Nyn\u00e4shamn,", "formatted_address": "73 & Mysingsv\u00e4gen, 149 41 Nyn\u00e4shamn, Sweden", "position": {"lat": 58.9122969, "lng": 17.9575596}, "place_id": "Ei03MyAmIE15c2luZ3N2w6RnZW4sIDE0OSA0MSBOeW7DpHNoYW1uLCBTd2VkZW4iZiJkChQKEgnZVng3gF5fRhEO2S9wRHgWTxIUChIJ2VZ4N4BeX0YRDtkvcER4Fk8aFAoSCfuu8BD6ZF9GESZ4BXmbVk_JGhQKEgkpUqxDgF5fRhFAln-OaEAbQiIKDZlNHSMVLBu0Cg", "oktan": "Ja", "source": "https://www.okq8.se/pa-stationen/bensinstationer/nynashamn-aut/", "distance": 0}, {"station": "OKQ8", "city": "Kungs\u00e4ngen,", "short_address": "Skolv\u00e4gen", "formatted_address": "Skolv\u00e4gen 41, 196 34 Kungs\u00e4ngen, Sweden", "position": {"lat": 59.4795342, "lng": 17.7298281}, "place_id": "ChIJrYb3RPqjX0YRucEwNEdlfGY", "oktan": "Ja", "source": "https://www.okq8.se/pa-stationen/bensinstationer/kungsangen-skolvagen/", "distance": 0}, {"station": "OKQ8", "city": "Norsborg,", "short_address": "Tegelbruksv\u00e4gen", "formatted_address": "Tegelbruksv\u00e4gen, 145 53 Botkyrka, Sweden", "position": {"lat": 59.25291310000001, "lng": 17.8686518}, "place_id": "ChIJpzIB6ftzX0YR2ZdLkklrgc0", "oktan": "Ja", "source": "https://www.okq8.se/pa-stationen/bensinstationer/norsborg-tegelbruksvagen/", "distance": 0}, {"station": "OKQ8", "city": "Sk\u00e4rholmen,", "short_address": "Ekholmsv\u00e4gen", "formatted_address": "Ekholmsv\u00e4gen 7-15, 127 48 Sk\u00e4rholmen, Sweden", "position": {"lat": 59.27237119999999, "lng": 17.9091731}, "place_id": "ChIJIfFkeaN2X0YRtZJMAHERTlY", "oktan": "Ja", "source": "https://www.okq8.se/pa-stationen/bensinstationer/skarholmen-ekholmsvagen/", "distance": 0}, {"station": "OKQ8", "city": "V\u00e4llingby,", "short_address": "J\u00e4mtlandsgatan", "formatted_address": "J\u00e4mtlandsgatan 139, 162 60 V\u00e4llingby, Sweden", "position": {"lat": 59.3615972, "lng": 17.8681297}, "place_id": "Ei5Kw6RtdGxhbmRzZ2F0YW4gMTM5LCAxNjIgNjAgVsOkbGxpbmdieSwgU3dlZGVuIhsSGQoUChIJFci6jNOfX0YRjtP5g57LOswQiwE", "oktan": "Ja", "source": "https://www.okq8.se/pa-stationen/bensinstationer/vallingby-jamtlandsgatan/", "distance": 0}, {"station": "OKQ8", "city": "J\u00e4rf\u00e4lla,", "short_address": "Dackev\u00e4gen", "formatted_address": "Dackev\u00e4gen 5, 177 34 J\u00e4rf\u00e4lla, Sweden", "position": {"lat": 59.4208225, "lng": 17.8454246}, "place_id": "ChIJh1GwoWOfX0YRFzxbksUxSBs", "oktan": "Ja", "source": "https://www.okq8.se/pa-stationen/bensinstationer/jarfalla-dackevagen-tanka/", "distance": 0}, {"station": "OKQ8", "city": "J\u00e4rf\u00e4lla,", "short_address": "V\u00e4rmev\u00e4gen", "formatted_address": "V\u00e4rmev\u00e4gen 1, 177 58 J\u00e4rf\u00e4lla, Sweden", "position": {"lat": 59.42833830000001, "lng": 17.8476913}, "place_id": "ChIJiZwPbmCfX0YRDPd5JUFzq_s", "oktan": "Ja", "source": "https://www.okq8.se/pa-stationen/bensinstationer/jakobsberg-varmevagen-1/", "distance": 0}, {"station": "OKQ8", "city": "J\u00e4rf\u00e4lla,", "short_address": "J\u00e4ttev\u00e4gen", "formatted_address": "J\u00e4ttev\u00e4gen 1, 176 77 J\u00e4rf\u00e4lla, Sweden", "position": {"lat": 59.4503757, "lng": 17.8335439}, "place_id": "ChIJRUrV3_ahX0YRm4NaAPLMYTc", "oktan": "Ja", "source": "https://www.okq8.se/pa-stationen/bensinstationer/jarfalla-jattevagen/", "distance": 0}, {"station": "OKQ8", "city": "Sp\u00e5nga,", "formatted_address": "Sp\u00e5nga, Sweden", "position": {"lat": 59.3800863, "lng": 17.9005822}, "place_id": "ChIJXU2aMUyeX0YRB82YJOHdwYo", "oktan": "Ja", "source": "https://www.okq8.se/pa-stationen/bensinstationer/spanga-lunda/", "distance": 0}, {"station": "OKQ8", "city": "J\u00e4rf\u00e4lla,", "short_address": "Enk\u00f6pingsv\u00e4gen", "formatted_address": "Enk\u00f6pingsv\u00e4gen 35, 177 38 J\u00e4rf\u00e4lla, Sweden", "position": {"lat": 59.4202027, "lng": 17.85394}, "place_id": "ChIJR8YisGWfX0YRyVRheRgV1LI", "oktan": "Ja", "source": "https://www.okq8.se/pa-stationen/bensinstationer/jarfalla-enkopingsvagen/", "distance": 0},